,City,Latitude,Longitude,Max Temperature (F),Humidity (%),Cloud Cover (%),Wind Speed (mph),Date
0,Jamestown,42.097,-79.2353,23.0,58,90,10.36,1612811533
1,Nikolskoye,59.7035,30.7861,1.0,85,0,2.24,1612811284
2,Atuona,-9.8,-139.0333,79.88,75,65,21.54,1612811535
3,Bahua,25.85,80.6333,56.48,58,0,4.18,1612811536
4,Hong Kong,22.2855,114.1577,66.0,78,100,24.72,1612811351
5,Rikitea,-23.1203,-134.9692,77.52,71,70,9.28,1612811280
6,Ushuaia,-54.8,-68.3,62.6,55,0,16.11,1612811274
7,Quesnel,52.9999,-122.5029,-7.6,77,1,10.36,1612811295
8,Port Elizabeth,-33.918,25.5701,68.0,83,0,12.66,1612811341
9,Opuwo,-18.0607,13.84,75.29,40,100,10.65,1612811543
10,Hobart,-42.8794,147.3294,51.8,76,75,10.36,1612811545
11,Madang,-5.2246,145.7966,77.29,86,99,5.12,1612811546
12,Port Alfred,-33.5906,26.891,66.99,88,33,1.01,1612811548
13,Hermanus,-34.4187,19.2345,71.01,80,10,4.7,1612811549
14,Puerto Ayora,-0.7393,-90.3518,82.4,78,75,12.66,1612811550
15,Kvitok,56.0724,98.4813,28.0,93,100,9.82,1612811552
16,Necochea,-38.5473,-58.7368,66.52,56,38,18.19,1612811553
17,Bluff,-46.6,168.3333,57.45,96,100,10.87,1612811554
18,Shingū,33.7333,135.9833,33.35,88,0,5.08,1612811354
19,Leshan,29.5623,103.7639,53.49,66,100,0.31,1612811557
20,Kolokani,13.5728,-8.0339,83.71,15,0,7.76,1612811560
21,Qaanaaq,77.484,-69.3632,20.62,80,100,5.86,1612811561
22,Güstrow,53.7972,12.1734,30.0,86,75,13.8,1612811562
23,Saint-Philippe,-21.3585,55.7679,78.8,73,20,1.14,1612811563
24,Mossamedes,-15.1961,12.1522,72.79,76,92,8.25,1612811564
25,Kovdor,67.5662,30.4758,8.13,95,83,7.18,1612811566
26,Chamba,32.5667,76.1333,57.27,33,0,7.67,1612811568
27,Longyearbyen,78.2186,15.6401,14.0,44,0,12.66,1612811569
28,Shujālpur,23.4,76.7167,57.2,67,0,1.81,1612811570
29,Erdenet,49.0333,104.0833,8.08,86,4,3.24,1612811571
30,Kavieng,-2.5744,150.7967,82.49,78,74,9.1,1612811572
31,Raahe,64.6833,24.4833,-0.4,85,20,1.14,1612811574
32,Adrar,20.5022,-10.0711,66.0,25,0,7.7,1612811330
33,Hasaki,35.7333,140.8333,32.0,59,20,4.61,1612811284
34,Pisco,-13.7,-76.2167,77.0,73,0,8.05,1612811578
35,Port Hawkesbury,45.6169,-61.3485,28.99,86,90,20.71,1612811579
36,Chopovychi,50.8332,28.9533,17.87,97,100,21.56,1612811580
37,Coahuayana Viejo,18.7333,-103.6833,78.8,38,20,7.02,1612811581
38,Avarua,-21.2078,-159.775,82.4,83,20,8.05,1612811285
39,Quzhou,28.9594,118.8686,44.15,84,100,8.7,1612811584
40,Saint Paul Harbor,57.79,-152.4072,30.2,74,20,11.5,1612811585
41,Yulara,-25.2406,130.9889,84.2,26,75,12.66,1612811586
42,Jinxiang,27.4327,120.6062,47.89,72,100,14.2,1612811588
43,Clyde River,70.4692,-68.5914,6.8,92,20,25.32,1612811589
44,Grindavik,63.8424,-22.4338,33.8,69,0,9.22,1612811311
45,Punta Arenas,-53.15,-70.9167,69.8,40,0,19.57,1612811591
46,George Town,5.4112,100.3354,82.4,83,20,3.44,1612811592
47,Tiksi,71.6872,128.8694,-24.02,87,100,5.84,1612811593
48,Concepción,-36.827,-73.0498,64.4,77,75,12.66,1612811595
49,Kapaa,22.0752,-159.319,73.4,64,1,11.5,1612811596
50,Lavrentiya,65.5833,-171.0,-3.68,83,100,11.95,1612811597
51,Butaritari,3.0707,172.7902,81.5,83,70,18.75,1612811599
52,Sharanga,57.1775,46.5396,-7.28,90,100,9.69,1612811600
53,Muros,42.7762,-9.0603,53.01,85,100,5.99,1612811602
54,Sahuaripa,29.05,-109.2333,74.73,20,0,3.36,1612811604
55,Teguise,29.0605,-13.564,68.0,64,75,9.22,1612811336
56,Bandarbeyla,9.4942,50.8122,76.26,70,81,21.41,1612811606
57,Belmonte,-15.8631,-38.8828,82.4,78,90,6.91,1612811607
58,Souillac,-20.5167,57.5167,80.6,74,40,8.05,1612811611
59,Planeta Rica,8.4147,-75.5883,91.51,49,97,4.9,1612811612
60,Saldanha,-33.0117,17.9442,69.8,73,0,19.57,1612811613
61,Mar del Plata,-38.0023,-57.5575,68.0,60,40,19.57,1612811459
62,Lebu,-37.6167,-73.65,64.54,78,4,9.95,1612811615
63,Jishou,28.3167,109.7167,46.24,81,100,1.21,1612811617
64,Vaini,-21.2,-175.2,77.0,94,90,10.36,1612811619
65,Bethel,41.3712,-73.414,27.0,36,1,3.44,1612811424
66,Mataura,-46.1927,168.8643,59.4,79,100,3.02,1612811621
67,Guerrero Negro,27.9769,-114.0611,68.34,43,2,5.82,1612811622
68,Bathsheba,13.2167,-59.5167,82.4,54,20,18.41,1612811623
69,Yellowknife,62.456,-114.3525,-34.6,67,75,16.11,1612811585
70,Sarkand,45.41,79.9186,40.78,83,100,8.16,1612811626
71,Shimoda,34.6667,138.95,39.51,70,47,13.0,1612811627
72,Airai,-8.9266,125.4092,60.4,100,100,3.0,1612811628
73,Bay Roberts,47.5999,-53.2648,32.0,97,100,11.01,1612811372
74,Honningsvåg,70.9821,25.9704,24.8,86,75,16.11,1612811632
75,Gemena,3.25,19.7667,76.57,24,0,1.88,1612811633
76,Sangar,63.9242,127.4739,-25.1,84,0,4.81,1612811635
77,Atar,20.5169,-13.0499,80.6,12,0,6.91,1612811636
78,Honiara,-9.4333,159.95,78.98,82,100,6.44,1612811637
79,Cape Town,-33.9258,18.4232,72.0,78,20,19.57,1612811512
80,Surin,14.8818,103.4936,75.0,99,13,8.28,1612811640
81,Casas Grandes,30.3667,-107.95,68.0,15,0,7.0,1612811641
82,Nauta,-4.5061,-73.5757,94.6,46,8,3.15,1612811642
83,Shitanjing,39.2342,106.3439,28.45,76,62,3.65,1612811643
84,Thompson,55.7435,-97.8558,-20.2,63,90,14.97,1612811644
85,Dauriya,49.9333,116.8667,2.32,92,0,6.17,1612811645
86,Albany,42.6001,-73.9662,25.0,40,97,4.88,1612811421
87,Maunabo,18.0072,-65.8993,80.01,92,3,3.0,1612811648
88,San Fernando,15.0286,120.6898,75.2,78,75,4.61,1612811351
89,Byron Bay,-28.65,153.6167,73.4,64,75,13.8,1612811650
90,Envira,-7.3,-70.2167,81.88,88,99,3.2,1612811651
91,Barrow,71.2906,-156.7887,-34.6,84,1,12.66,1612811652
92,Saint-Joseph,-21.3667,55.6167,78.8,73,20,1.14,1612811654
93,Richards Bay,-28.783,32.0377,75.85,91,62,7.92,1612811655
94,Codrington,-38.2667,141.9667,51.37,92,9,7.85,1612811656
95,Provideniya,64.3833,-173.3,-0.58,88,100,18.72,1612811657
96,Carnarvon,-24.8667,113.6333,77.0,100,0,18.41,1612811658
97,Port Blair,11.6667,92.75,76.08,77,78,12.41,1612811659
98,Aykhal,66.0,111.5,-16.98,86,100,6.15,1612811661
99,Busselton,-33.65,115.3333,55.99,98,75,7.4,1612811662
100,Qandala,11.472,49.8728,74.26,65,29,6.73,1612811663
101,Castro,-24.7911,-50.0119,74.48,59,6,4.99,1612811665
102,Bucksport,44.5737,-68.7956,23.0,42,84,10.0,1612811667
103,Arraial do Cabo,-22.9661,-42.0278,75.2,83,75,10.36,1612811668
104,Kadoma,34.7333,135.5833,35.01,60,8,1.99,1612811669
105,Hithadhoo,-0.6,73.0833,82.65,79,62,12.46,1612811670
106,Skellefteå,64.7507,20.9528,12.2,85,0,5.75,1612811671
107,Russell,32.3502,-85.1999,62.6,45,1,8.05,1612811672
108,Meulaboh,4.1363,96.1285,76.89,89,17,5.46,1612811673
109,New Norfolk,-42.7826,147.0587,51.8,76,75,10.36,1612811675
110,Pevek,69.7008,170.3133,-13.67,83,100,0.2,1612811676
111,Nanortalik,60.1432,-45.2371,31.08,91,83,12.8,1612811677
112,Bayir,37.2687,28.2167,64.4,72,75,18.41,1612811679
113,Tuktoyaktuk,69.4541,-133.0374,-40.0,67,1,4.61,1612811680
114,Acajutla,13.5928,-89.8275,85.62,55,0,9.33,1612811682
115,Molina,-35.1167,-71.2833,87.01,60,20,9.22,1612811683
116,Mahanoro,-19.9,48.8,79.36,84,51,8.46,1612811684
117,Kungurtug,50.5994,97.5228,9.88,85,99,3.8,1612811686
118,Camacha,33.0833,-16.3333,59.0,88,20,13.8,1612811687
119,Dandong,40.1292,124.3947,17.83,81,0,1.92,1612811689
120,Cruzeiro do Sul,-29.5128,-51.9853,87.01,53,0,3.0,1612811690
121,Lüderitz,-26.6481,15.1594,74.91,46,0,22.03,1612811691
122,Vostok,46.4856,135.8833,-10.01,90,100,6.02,1612811692
123,Guarujá,-23.9931,-46.2564,82.99,65,75,10.36,1612811415
124,Ancud,-41.8697,-73.8203,81.0,39,0,8.05,1612811696
125,Williams Lake,52.1415,-122.1445,-7.6,71,1,8.05,1612811554
126,Xingtai,37.0631,114.4942,35.92,64,0,6.33,1612811698
127,Muhafazat Lahij,13.1667,44.5833,71.11,75,62,9.86,1612811699
128,Akom,2.6678,12.7109,75.52,62,98,2.62,1612811700
129,Fortuna,40.5982,-124.1573,50.0,87,1,4.61,1612811702
130,Tilichiki,60.4667,166.1,21.27,97,93,17.6,1612811704
131,La Ronge,55.1001,-105.2842,-22.0,63,100,13.8,1612811705
132,Lethem,3.3803,-59.7968,86.0,70,75,13.8,1612811706
133,Sobolevo,54.4299,31.8996,3.74,93,100,8.86,1612811708
134,Cidreira,-30.1811,-50.2056,75.79,66,0,10.83,1612811710
135,Chokurdakh,70.6333,147.9167,-9.85,85,0,9.89,1612811711
136,Terrace,54.5163,-128.6035,12.2,62,75,16.11,1612811712
137,Presidente Epitácio,-21.7633,-52.1156,83.62,45,0,8.52,1612811713
138,Esperance,-33.8667,121.9,64.4,82,0,11.5,1612811714
139,Belaya Gora,68.5333,146.4167,-21.1,86,89,2.28,1612811716
140,Eenhana,-17.4667,16.3333,77.0,78,100,6.91,1612811717
141,La Palma,33.8464,-118.0467,62.01,55,20,5.19,1612811718
142,Hilo,19.7297,-155.09,75.2,50,1,3.44,1612811460
143,Monrovia,6.3005,-10.7969,80.6,83,40,9.78,1612811721
144,Faanui,-16.4833,-151.75,81.0,77,0,13.42,1612811722
145,Solnechnyy,50.7214,136.6319,-3.35,88,100,1.97,1612811723
146,San Ramon,37.7799,-121.978,57.99,72,100,4.0,1612811724
147,Bulungu,-4.55,18.6,76.73,73,3,2.19,1612811725
148,Lisala,2.15,21.5167,75.38,33,99,1.61,1612811726
149,Coquimbo,-29.9533,-71.3436,69.8,56,0,14.97,1612811719
150,Cabo San Lucas,22.8909,-109.9124,75.0,40,1,11.5,1612811611
151,Upernavik,72.7868,-56.1549,16.43,77,0,2.24,1612811730
152,Fendou,46.65,124.8667,3.34,90,100,7.83,1612811732
153,Itapé,-25.85,-56.6167,87.39,45,96,2.64,1612811733
154,Mahébourg,-20.4081,57.7,80.6,74,40,8.05,1612811734
155,‘Ewa Beach,21.3156,-158.0072,75.2,57,20,11.5,1612811736
156,Kenai,60.5544,-151.2583,1.99,70,1,8.59,1612811703
157,Port Hardy,50.6996,-127.4199,37.4,56,20,8.05,1612811738
158,Lompoc,34.6391,-120.4579,53.6,82,90,3.44,1612811739
159,Bonthe,7.5264,-12.505,81.34,76,26,9.69,1612811740
160,Meadow Lake,34.8014,-106.5436,62.01,13,20,3.44,1612811742
161,Bredasdorp,-34.5322,20.0403,69.8,78,5,8.05,1612811743
162,Port Macquarie,-31.4333,152.9167,64.99,95,37,9.78,1612811744
163,Khatanga,71.9667,102.5,-19.48,82,0,14.03,1612811745
164,Sisimiut,66.9395,-53.6735,21.69,79,0,11.54,1612811746
165,Ribeira Grande,38.5167,-28.7,60.8,88,75,18.41,1612811747
166,Besuki,-7.7338,113.6979,78.03,81,100,3.53,1612811748
167,Boguchany,58.3814,97.4531,25.79,94,100,9.4,1612811750
168,Comines,50.7615,3.0106,23.0,86,100,8.01,1612811752
169,Mogadishu,2.0371,45.3438,78.08,81,100,23.91,1612811538
170,Tupiza,-21.45,-65.7167,66.18,50,100,11.03,1612811754
171,City of San Pedro,14.35,121.0167,79.0,73,40,4.61,1612811540
172,Teknāf,20.8624,92.3058,65.66,73,0,10.6,1612811758
173,Muravlenko,63.7898,74.523,-13.31,91,58,6.02,1612811759
174,Abalak,58.1286,68.5944,-12.57,91,97,5.3,1612811760
175,Torbay,47.6666,-52.7314,33.01,93,90,20.71,1612811761
176,Fort Nelson,58.8053,-122.7002,-23.8,69,20,2.3,1612811763
177,Aljezur,37.3191,-8.8033,55.99,100,100,1.99,1612811765
178,Kouqian,43.6391,126.4578,-0.69,88,0,6.96,1612811488
179,Ahipara,-35.1667,173.1667,65.68,87,100,7.49,1612811768
180,Laguna,38.421,-121.4238,59.0,62,1,3.44,1612811770
181,Naze,28.3667,129.4833,53.08,75,0,17.02,1612811772
182,San Jerónimo,-11.9472,-75.2829,64.87,45,51,3.98,1612811773
183,Luanda,-8.8368,13.2343,80.6,78,20,9.22,1612811541
184,San Jose,37.3394,-121.895,54.0,76,75,1.63,1612811700
185,Broome,42.2506,-75.833,23.0,41,75,5.12,1612811728
186,Grand Gaube,-20.0064,57.6608,79.0,79,11,5.01,1612811778
187,Putina,-15.4667,-69.4333,54.63,58,98,10.83,1612811779
188,Fort Smith,35.3859,-94.3986,35.6,93,90,13.8,1612811718
189,Kosino,58.4127,51.2782,-16.08,86,76,10.02,1612811781
190,Oberstdorf,47.4,10.2833,32.0,90,0,3.0,1612811782
191,Khovd,48.0056,91.6419,14.2,89,100,1.39,1612811784
192,Kiryat Gat,31.61,34.7642,64.99,57,88,4.09,1612811785
193,Kirakira,-10.4544,161.9205,79.61,80,100,7.05,1612811786
194,Vardø,70.3705,31.1107,21.2,86,90,18.41,1612811787
195,Mitchellville,38.9251,-76.7428,37.99,41,1,5.75,1612811789
196,Calatrava,10.595,123.4838,77.0,88,90,8.05,1612811790
197,Fort Wayne,41.1306,-85.1289,15.8,73,90,8.05,1612811676
198,Gariāband,20.635,82.0614,62.6,63,0,3.44,1612811792
199,Isangel,-19.55,169.2667,71.6,100,20,5.5,1612811794
200,Alice Springs,-23.7,133.8833,80.6,57,75,4.61,1612811795
201,Umluj,25.0213,37.2685,74.03,45,0,3.65,1612811796
202,Dzilam González,21.2833,-88.9333,90.64,42,0,7.47,1612811797
203,Ilulissat,69.2167,-51.1,24.8,36,1,27.63,1612811798
204,Dicabisagan,17.0818,122.4157,74.89,85,100,9.95,1612811799
205,Dikson,73.5069,80.5464,-31.41,84,85,14.52,1612811801
206,Tadine,-21.55,167.8833,76.24,83,1,5.53,1612811802
207,Kahului,20.8947,-156.47,75.2,64,20,8.05,1612811803
208,East London,-33.0153,27.9116,66.2,88,0,3.44,1612811804
209,Dauphin,51.1494,-100.0502,-18.4,69,1,27.63,1612811805
210,Tauá,-5.9667,-40.3,91.06,38,99,7.87,1612811806
211,Buraidah,26.326,43.975,51.8,100,0,6.91,1612811808
212,Saint-Ambroise,48.5501,-71.3324,12.99,61,27,13.8,1612811809
213,Ostrovnoy,68.0531,39.5131,0.16,86,90,6.46,1612811810
214,Chui,-33.6971,-53.4616,70.83,86,71,6.76,1612811811
215,Swan Hill,-35.3378,143.5544,58.05,65,0,9.62,1612811812
216,Kapuskasing,49.4169,-82.4331,1.4,50,33,17.27,1612811738
217,Eugene,44.0521,-123.0867,45.0,76,75,4.61,1612811815
218,Lewisporte,49.2499,-55.0482,28.4,93,90,23.02,1612811816
219,Nome,64.5011,-165.4064,6.8,51,1,9.22,1612811817
220,Mata,40.683,-7.4592,48.0,88,100,8.01,1612811818
221,Salalah,17.0151,54.0924,73.4,73,0,2.3,1612811819
222,Newport,51.5877,-2.9984,34.0,79,21,18.21,1612811626
223,Hay River,60.8156,-115.7999,-31.0,68,100,20.71,1612811823
224,Shubarkuduk,49.1447,56.4872,1.92,93,96,12.73,1612811824
225,Roald,62.5833,6.1333,15.8,73,0,8.05,1612811825
226,Conceição do Araguaia,-8.2578,-49.2647,78.8,89,20,6.91,1612811826
227,Leshukonskoye,64.8989,45.7622,-26.37,86,69,5.32,1612811827
228,Kachīry,53.0675,76.1036,-3.62,87,86,19.77,1612811828
229,Charlottetown,46.2352,-63.1267,28.99,86,90,13.8,1612811830
230,Naugachhia,25.4,87.1,56.7,57,0,7.29,1612811831
231,Chapais,49.7834,-74.8492,3.2,60,75,9.22,1612811832
232,Sotnikovo,51.8845,107.4791,-5.8,84,20,2.24,1612811833
233,Saint Anthony,45.0205,-93.218,1.0,55,1,5.75,1612811834
234,Half Moon Bay,37.4636,-122.4286,55.99,87,40,3.44,1612811836
235,Port Lincoln,-34.7333,135.8667,64.89,81,0,14.47,1612811837
236,Tsil'na,54.5953,48.1414,-7.6,64,6,13.42,1612811838
237,Nieuw Amsterdam,5.8833,-55.0833,86.0,62,40,11.5,1612811839
238,Bambous Virieux,-20.3428,57.7575,80.6,74,40,8.05,1612811840
239,Gizo Government Station,-8.103,156.8419,82.99,76,94,9.31,1612811841
240,Kushima,31.4583,131.2333,38.12,73,0,6.98,1612811843
241,Aleksandrov Gay,50.147,48.5704,3.31,85,0,10.67,1612811844
242,Trairi,-3.2778,-39.2689,85.66,65,7,12.68,1612811551
243,Hambantota,6.1241,81.1185,78.8,83,40,11.5,1612811846
244,Tezu,27.9167,96.1667,60.39,38,0,3.74,1612811847
245,Pacific Grove,36.6177,-121.9166,57.0,76,1,4.61,1612811655
246,Sitka,57.0531,-135.33,24.8,58,90,17.27,1612811850
247,Paciran,-6.8767,112.3761,78.78,86,100,8.9,1612811851
248,Chunoyar,57.4467,97.3217,28.36,94,100,10.33,1612811852
249,Saint-Augustin,51.226,-58.6502,34.57,98,100,11.18,1612811853
250,Bengkulu,-3.8004,102.2655,76.24,79,100,3.31,1612811854
251,Mariehamn,60.0973,19.9348,1.4,92,0,5.75,1612811855
252,Tessalit,20.1986,1.0114,69.3,19,90,10.07,1612811857
253,Kasongo,-4.45,26.6667,72.68,86,100,1.45,1612811858
254,Basco,20.4487,121.9702,72.55,77,99,29.1,1612811859
255,Sijunjung,-0.6876,100.9537,72.05,90,100,1.14,1612811860
256,Caravelas,-17.7125,-39.2481,73.11,97,100,3.6,1612811861
257,Beloha,-25.1667,45.05,78.58,79,100,2.37,1612811862
258,Quelimane,-17.8786,36.8883,84.2,65,20,5.75,1612811864
259,Fairbanks,64.8378,-147.7164,-18.4,76,1,6.91,1612811865
260,Tinaquillo,9.9186,-68.3047,93.2,38,40,2.82,1612811866
261,Katakwi,1.8911,33.9661,74.34,56,58,11.77,1612811867
262,Nālūt,30.3333,10.85,55.94,36,0,8.46,1612811868
263,Iberia,29.9502,-91.7507,66.2,68,1,9.22,1612811869
264,Kuloy,61.0305,42.4925,-7.19,92,97,4.38,1612811871
265,Dezhou,37.4486,116.2925,35.24,66,0,9.51,1612811872
266,Lamlash,55.5336,-5.1296,30.99,74,20,11.5,1612811873
267,Sur,22.5667,59.5289,65.98,77,100,1.54,1612811874
268,Kalmunai,7.4167,81.8167,76.73,83,100,12.95,1612811875
269,Porto Velho,-8.7619,-63.9039,82.4,74,75,8.05,1612811877
270,Esim,4.8699,-2.2405,80.35,83,3,7.4,1612811878
271,Ponta do Sol,32.6667,-17.1,59.0,67,22,1.99,1612811879
272,Tshikapa,-6.4167,20.8,75.24,80,100,0.27,1612811880
273,Polunochnoye,60.8697,60.4153,-18.53,86,100,6.04,1612811881
274,Pingzhuang,42.0372,119.2889,10.76,85,0,2.06,1612811884
275,Berlevåg,70.8578,29.0864,24.8,93,75,12.66,1612811886
276,Narsaq,60.9167,-46.05,39.2,28,75,41.43,1612811887
277,Ixtapa,20.7,-105.2,77.0,57,1,8.05,1612811638
278,Zatoka,46.0725,30.4654,35.6,100,90,20.13,1612811889
279,Derzhavīnsk,51.1,66.3167,-6.61,89,100,23.55,1612811891
280,Paralímni,35.0375,33.9833,61.0,88,40,3.44,1612811892
281,Hobyo,5.3505,48.5268,77.76,73,42,22.12,1612811893
282,Tasiilaq,65.6145,-37.6368,23.0,63,75,16.11,1612811895
283,Dutse,11.7594,9.3392,75.9,17,0,9.35,1612811898
284,Andenes,69.3143,16.1194,30.2,64,75,10.36,1612811899
285,Moyale,3.5167,39.0584,75.81,45,4,9.89,1612811900
286,Mount Isa,-20.7333,139.5,77.0,83,90,6.91,1612811901
287,Shetpe,44.1667,52.1167,28.69,87,100,6.49,1612811902
288,Abhā,18.2164,42.5053,48.2,81,40,12.66,1612811904
289,Tuatapere,-46.1333,167.6833,55.85,93,100,9.31,1612811905
290,Geraldton,-28.7667,114.6,62.6,94,0,4.61,1612811906
291,Vestmannaeyjar,63.4427,-20.2734,35.6,87,40,17.27,1612811907
292,Darhan,49.4867,105.9228,6.35,89,29,5.37,1612811908
293,Bonavista,48.6499,-53.1147,30.99,100,100,8.05,1612811909
294,Inverell,-29.7833,151.1167,59.0,94,1,1.01,1612811910
295,Korla,41.7597,86.1469,32.59,78,92,3.4,1612811912
296,Iqaluit,63.7506,-68.5145,26.6,74,75,3.44,1612811914
297,Hamilton,39.1834,-84.5333,37.4,35,40,4.61,1612811866
298,Vanimo,-2.6741,141.3028,78.94,82,100,4.21,1612811916
299,Panzhihua,26.5851,101.7128,44.01,71,100,1.7,1612811917
300,Quatre Cocos,-20.2078,57.7625,80.6,74,40,8.05,1612811919
301,São João da Barra,-21.6403,-41.0511,78.8,73,90,11.5,1612811920
302,Kuusamo,65.9667,29.1833,3.2,92,0,6.91,1612811921
303,Chepareria,1.3077,35.2039,63.5,82,99,1.54,1612811922
304,Killybegs,54.6333,-8.45,33.8,75,0,17.27,1612811742
305,Mumbwa,-14.9783,27.0619,67.68,96,100,3.74,1612811924
306,Saint George,37.1041,-113.5841,57.0,27,1,3.44,1612811821
307,Cayenne,4.9333,-52.3333,84.2,70,75,13.8,1612811927
308,Oriximiná,-1.7656,-55.8661,91.13,48,100,3.91,1612811928
309,Baykit,61.67,96.37,10.63,92,100,4.9,1612811929
310,Sept-Îles,50.2001,-66.3821,27.0,63,100,13.8,1612811839
311,Taganak,6.0833,118.3,77.0,94,20,3.44,1612811933
312,Taoudenni,22.6783,-3.9836,67.89,22,0,8.68,1612811935
313,Faya,18.3851,42.4509,48.2,81,40,12.66,1612811768
314,Irbit,57.6705,63.071,-13.36,87,100,9.42,1612811937
315,Okha,53.5739,142.9478,8.89,94,100,20.54,1612811938
316,Berdigestyakh,62.0989,126.6992,-20.56,85,0,3.91,1612811940
317,Mortka,59.3322,66.0214,-9.85,91,100,4.07,1612811941
318,Leningradskiy,69.3833,178.4167,-22.45,85,55,10.11,1612811942
319,Christchurch,-43.5333,172.6333,69.8,43,100,8.05,1612811944
320,Petropavlovsk-Kamchatskiy,53.0452,158.6483,12.2,92,20,6.71,1612811945
321,Inuvik,68.3499,-133.7218,-36.4,67,100,4.61,1612811947
322,Porto Torres,40.835,8.3972,57.2,94,40,13.8,1612811948
323,Acaraú,-2.8856,-40.12,84.34,69,100,13.76,1612811949
324,Cherskiy,68.75,161.3,3.51,71,100,5.06,1612811940
325,Mareeba,-17.0,145.4333,77.0,94,90,4.61,1612811951
326,Hofn,64.2539,-15.2082,35.6,80,90,10.36,1612811952
327,Severo-Kuril'sk,50.6789,156.125,18.18,88,37,5.91,1612811954
328,Yanam,16.7333,82.2167,66.02,83,0,1.28,1612811955
329,Mayor Pablo Lagerenza,-19.9309,-60.7718,100.6,17,0,5.01,1612811957
330,Los Llanos de Aridane,28.6585,-17.9182,66.2,68,75,3.44,1612811958
331,Orcopampa,-15.2661,-72.3417,54.91,58,100,7.96,1612811959
332,Katsuura,35.1333,140.3,37.0,32,53,3.0,1612811763
333,Jacareacanga,-6.2222,-57.7528,86.0,79,20,5.75,1612811963
334,Lubumbashi,-11.6609,27.4794,66.58,96,100,4.72,1612811965
335,Waipawa,-41.4122,175.5153,64.0,94,75,11.5,1612811966
336,Ürümqi,43.801,87.6005,14.0,92,20,2.24,1612811886
337,Ust-Nera,64.5667,143.2,-11.31,82,76,7.18,1612811970
338,Kuril'sk,45.2333,147.8833,19.42,88,100,18.45,1612811971
339,Kruisfontein,-34.0033,24.7314,69.01,74,37,1.99,1612811846
340,Norman Wells,65.282,-126.8329,-32.8,68,1,8.05,1612811973
341,Sioux Lookout,50.1001,-91.917,-14.8,53,40,11.5,1612811975
342,Nexø,55.0607,15.1306,28.4,64,75,19.57,1612811976
343,Mizdah,31.4451,12.9801,58.23,34,0,8.88,1612811977
344,Gvardeysk,54.6477,21.0651,17.6,79,90,24.61,1612811978
345,Sterling,39.0062,-77.4286,37.99,44,20,8.05,1612811854
346,Saskylakh,71.9167,114.0833,-31.11,83,24,4.07,1612811884
347,Te Anau,-45.4167,167.7167,57.72,92,100,0.74,1612811981
348,Lao Cai,22.4833,103.95,57.58,83,100,4.05,1612811983
349,Yārāda,17.65,83.2667,66.2,88,70,2.3,1612811984
350,Vila Franca do Campo,37.7167,-25.4333,61.0,88,75,24.16,1612811986
351,Ibrā’,22.6906,58.5334,60.12,77,64,2.77,1612811846
352,Türje,46.9837,17.1074,35.6,93,75,5.75,1612811988
353,Malanje,-9.5402,16.341,66.38,92,99,5.39,1612811932
354,San Fernando del Valle de Catamarca,-28.4696,-65.7852,71.01,92,100,1.01,1612811991
355,Vernon,50.2581,-119.2691,19.0,35,0,5.75,1612811992
356,La Brea,15.8,-85.9667,84.2,70,40,10.36,1612811993
357,Longview,32.5007,-94.7405,64.99,55,20,9.22,1612811995
358,De-Kastri,51.4667,140.7833,5.49,89,100,17.76,1612811876
359,São José da Coroa Grande,-8.8978,-35.1478,82.67,67,3,10.49,1612811998
360,Hauterive,46.0901,3.4459,37.4,93,90,5.75,1612811999
361,Saint-Pierre,-21.3393,55.4781,78.8,73,20,1.14,1612812000
362,Diré,12.2833,-10.9667,88.3,14,0,3.11,1612812001
363,Kushmurun,52.4503,64.6311,-0.83,90,100,16.35,1612812003
364,Mezen',65.8522,44.24,-17.68,89,100,5.66,1612812005
365,Labuhan,-6.8844,112.2051,78.69,86,100,8.08,1612812006
366,Talā,30.6803,30.9429,67.66,26,100,6.49,1612812007
367,Nguru,12.8791,10.4526,75.9,17,0,9.08,1612812008
368,Bilibino,68.0546,166.4372,3.79,80,100,5.7,1612812009
369,Mina,26.0011,-100.5299,81.0,32,40,2.3,1612812010
370,Mahon,39.8885,4.2658,55.4,76,20,6.91,1612812012
371,Puerto Ayacucho,5.6639,-67.6236,94.87,43,98,4.38,1612812013
372,Brae,60.3964,-1.353,32.0,59,75,24.16,1612812014
373,Sabang,5.8933,95.3214,81.64,75,47,9.13,1612812003
374,Panguipulli,-39.6333,-72.3333,84.2,39,0,5.75,1612812016
375,Dudinka,69.4058,86.1778,6.94,94,100,15.48,1612812018
376,Asadābād,34.7824,48.1185,43.86,62,0,3.96,1612812019
377,Storslett,69.7678,21.0247,24.8,74,75,4.61,1612812020
378,North Platte,41.1239,-100.7654,1.4,78,90,4.61,1612811820
379,Blyth,55.1271,-1.5086,33.01,74,40,11.5,1612812023
380,Sumter,28.7086,-82.0831,72.0,76,98,4.0,1612812025
381,Cabinda,-5.55,12.2,80.47,84,100,7.94,1612812026
382,Fort-Shevchenko,44.5086,50.263,27.73,95,100,14.88,1612812027
383,Rawson,-43.3002,-65.1023,72.93,34,0,22.66,1612812030
384,Villamontes,-21.25,-63.5,97.27,24,1,6.11,1612812031
385,Dolinsk,47.35,142.8,14.0,67,40,11.18,1612812032
386,Constitución,-35.3333,-72.4167,66.92,69,11,10.11,1612811954
387,Pilar,-9.5972,-35.9567,84.2,65,20,11.5,1612812034
388,Santa Barbara,34.7333,-120.0343,57.0,100,90,4.29,1612811741
389,Kununurra,-15.7667,128.7333,77.0,100,75,6.91,1612812037
390,Ntoum,0.3833,9.7833,82.4,78,20,5.75,1612812038
391,Nkoteng,4.5167,12.0333,79.52,23,100,2.26,1612812040
392,Lagoa,39.05,-27.9833,59.38,75,100,24.52,1612812041
393,San Miguel,13.4833,-88.1833,98.6,26,0,6.91,1612812043
394,Dzaoudzi,-12.7887,45.2699,80.6,83,75,5.75,1612812044
395,San Buenaventura,27.0833,-101.5333,79.65,17,100,4.36,1612812045
396,Itabirito,-20.2533,-43.8014,75.2,57,75,6.91,1612811981
397,York,40.1254,-77.0,30.0,40,1,4.61,1612812047
398,Broken Hill,-31.95,141.4333,62.6,29,0,9.62,1612812049
399,Riviere-au-Renard,48.9957,-64.3971,28.4,64,75,18.41,1612812050
400,Pangnirtung,66.1451,-65.7125,17.6,53,20,2.3,1612812032
401,Sola,-13.8833,167.55,73.4,94,20,4.09,1612812052
402,Navahrudak,53.6,25.8333,13.37,97,100,21.77,1612812053
403,Washington,47.5001,-120.5015,35.01,63,100,1.99,1612812054
404,Santa Luzia,-19.7697,-43.8514,75.2,78,75,2.3,1612812056
405,Kavaratti,10.5669,72.642,81.75,64,0,8.43,1612811950
406,Goulburn,-34.75,149.7167,59.0,94,100,8.08,1612812059
407,Rakai,-0.72,31.4839,63.55,69,6,2.13,1612812061
408,Black Diamond,47.3087,-122.0032,43.0,78,89,6.93,1612812063
409,Talnakh,69.4865,88.3972,6.19,93,100,11.79,1612812049
410,Alipur,29.3846,70.9116,61.75,29,58,2.24,1612812065
411,West Bay,19.3667,-81.4167,82.4,74,75,14.97,1612812066
412,Araouane,18.9048,-3.5265,69.89,19,100,8.08,1612812067
413,Khao Yoi,13.2403,99.8243,77.0,97,4,3.91,1612812068
414,Soller,39.7662,2.7152,59.0,57,63,11.99,1612812070
415,Santa Cruz de Tenerife,28.4682,-16.2546,63.0,94,75,13.8,1612812071
416,Kaitangata,-46.2817,169.8464,63.0,89,100,1.01,1612812067
417,Port Hedland,-20.3167,118.5667,75.2,88,0,8.05,1612812074
418,Peniche,39.3558,-9.3811,57.0,83,100,10.0,1612812075
419,Houston,29.7633,-95.3633,69.01,77,90,16.11,1612811950
420,Zhigansk,66.7697,123.3711,-27.8,81,0,8.99,1612812078
421,Katobu,-4.9408,122.5276,75.87,89,100,0.94,1612812079
422,Severo-Yeniseyskiy,60.3725,93.0408,17.28,96,100,13.22,1612812080
423,Tuskegee,32.424,-85.6916,61.0,91,100,8.99,1612812081
424,Dongsheng,39.8161,109.9776,25.36,76,72,7.29,1612812084
425,Mitú,1.1983,-70.1733,82.81,86,100,3.0,1612812085
426,Oktyabr'skiy,54.4815,53.471,-18.24,86,100,9.71,1612812086
427,Vestmanna,62.1564,-7.1664,35.6,64,40,9.22,1612812087
428,Yola,9.2,12.4833,82.87,14,5,2.35,1612812088
429,Virginia Beach,36.8529,-75.978,43.0,42,1,6.91,1612812002
430,Warwick,41.7001,-71.4162,28.99,47,0,3.0,1612812090
431,Turtas,58.9417,69.1325,-12.5,90,86,3.56,1612812093
432,Springfield,37.2153,-93.2982,30.99,93,90,8.05,1612812094
433,Avera,33.194,-82.5271,60.8,55,1,6.91,1612812095
434,Villazón,-22.0866,-65.5942,63.1,51,100,18.9,1612812097
435,Dunedin,-45.8742,170.5036,61.0,81,100,1.99,1612812098
436,Nhulunbuy,-12.2333,136.7667,78.8,94,75,12.66,1612812099
437,Eureka,40.8021,-124.1637,48.99,76,100,1.99,1612811924
438,Galesong,-5.3166,119.3661,75.2,100,20,3.44,1612812101
439,Neuquén,-38.9516,-68.0591,75.2,38,0,10.36,1612812090
440,Mosquera,4.7059,-74.2302,71.6,37,75,4.61,1612812105
441,San Cristobal,7.7669,-72.225,87.8,48,40,9.22,1612811968
442,Srīvardhan,18.0333,73.0167,73.6,54,0,6.58,1612812108
443,Nantucket,41.2835,-70.0995,27.0,63,1,12.66,1612812109
444,Bonaventure,48.0457,-65.4926,28.4,69,100,13.8,1612812110
445,Burnie,-41.0667,145.9167,51.01,70,0,10.22,1612812111
446,Lamu,-2.2717,40.902,78.13,81,65,12.15,1612812112
447,Freeport,40.6576,-73.5832,28.99,43,1,4.61,1612812116
448,Rapallo,44.3511,9.2297,53.01,80,100,14.79,1612812117
449,Tsiroanomandidy,-18.7667,46.0333,68.68,95,100,1.61,1612812118
450,Yumen,40.2833,97.2,28.15,75,8,7.9,1612811990
451,Bama,11.5221,13.6856,73.51,21,40,11.54,1612812121
452,Senanga,-16.1167,23.2667,70.02,91,100,1.3,1612812122
453,Karakol,42.4907,78.3936,35.13,80,100,2.82,1612812123
454,Qaqortoq,60.7167,-46.0333,39.2,28,75,41.43,1612812124
455,Huarmey,-10.0681,-78.1522,77.76,63,26,11.86,1612812125
456,Dehui,44.5333,125.7,3.2,60,0,8.95,1612812126
457,Rørvik,64.8621,11.2373,15.8,92,0,3.44,1612812128
458,Rio Grande,-32.035,-52.0986,77.0,69,40,12.66,1612811917
459,Örnsköldsvik,63.2909,18.7153,12.2,100,0,6.91,1612812130
460,Mayo,38.8876,-76.5119,35.01,47,1,9.22,1612811968
461,Ust'-Ilimsk,58.0006,102.6619,18.88,96,71,6.26,1612812132
462,Havre-St-Pierre,50.2334,-63.5986,26.6,68,20,12.66,1612811954
463,Moerai,-22.4333,-151.3333,81.0,71,14,10.42,1612812134
464,Arrifes,37.7667,-25.7,61.0,88,75,24.16,1612812136
465,Vila Velha,-20.3297,-40.2925,79.0,94,90,3.47,1612812137
466,Kloulklubed,7.0419,134.2556,77.0,100,90,8.05,1612811947
467,Makakilo City,21.3469,-158.0858,75.2,57,20,11.5,1612812140
468,Mount Gambier,-37.8333,140.7667,48.2,93,0,6.91,1612812051
469,Yar-Sale,66.8333,70.8333,-18.53,87,13,5.26,1612812142
470,Arrondissement de Tarbes,43.25,0.1667,46.4,87,75,11.5,1612812143
471,São Filipe,14.8961,-24.4956,71.42,73,100,11.45,1612811990
472,Sechura,-5.5569,-80.8222,86.04,46,25,13.31,1612812145
473,Preston,53.7667,-2.7167,32.0,80,40,14.97,1612812147
474,Coyhaique,-45.5752,-72.0662,86.0,25,0,5.75,1612812148
475,Huilong,31.8111,121.655,39.99,80,71,7.54,1612812149
476,Amga,60.8953,131.9608,-15.83,86,100,0.69,1612811969
477,Alenquer,-1.9417,-54.7383,86.0,66,20,5.75,1612812151
478,Tawang Town,27.5833,91.8667,36.05,52,0,6.78,1612812152
479,Noyabrsk,63.1994,75.4507,-10.34,91,84,5.88,1612812154
480,Gyál,47.3845,19.2214,34.0,86,75,18.41,1612812155
481,Abbeville,50.1,1.8333,27.0,85,99,10.54,1612812156
482,Deputatsky,69.3,139.9,-21.24,88,4,3.04,1612812157
483,Bilma,18.6853,12.9164,71.46,18,100,7.16,1612812158
484,Shenjiamen,29.9576,122.298,44.04,72,99,11.43,1612811964
485,Sayaxché,16.5167,-90.1667,85.57,58,52,3.4,1612812161
486,Capitán Bado,-23.2667,-55.5333,80.92,58,53,5.97,1612812162
487,Kamenka,51.3223,42.7678,-6.9,86,59,4.52,1612812164
488,Kalevala,65.2,31.1667,8.13,94,9,7.56,1612812165
489,Krasnoural'sk,58.3638,60.0407,-15.03,85,100,10.74,1612812166
490,Kailua,21.4022,-157.7394,73.4,64,20,5.75,1612811974
491,Yashkul',46.1711,45.3435,24.82,90,100,8.93,1612812168
492,Wattegama,6.7989,81.4808,78.8,83,40,11.5,1612812169
493,Angoche,-16.2325,39.9086,81.18,83,100,8.14,1612812171
494,Alyangula,-13.8483,136.4192,82.4,83,75,5.75,1612812172
495,Siderno,38.2779,16.302,57.99,62,20,6.91,1612812173
496,Mackay,-21.15,149.2,77.0,88,100,5.75,1612812174
497,Ponta Delgada,37.7333,-25.6667,61.0,88,75,24.16,1612812175
498,Almeirim,-1.5233,-52.5817,93.06,44,100,5.35,1612812176
499,Abu Samrah,35.3029,37.1841,58.1,62,100,5.64,1612812178
500,Puerto Carreño,6.189,-67.4859,97.25,35,87,11.32,1612812179
501,Lukulu,-14.3707,23.242,69.22,95,100,5.35,1612812180
502,Hualmay,-11.0964,-77.6139,77.29,65,100,12.19,1612811953
503,São Francisco,-15.9486,-44.8644,73.47,91,100,5.1,1612812182
504,Sharan,54.8167,54.0,-19.73,86,100,11.95,1612812183
505,Kayerkan,69.3497,87.7602,6.01,94,100,8.21,1612812185
506,Aksu,41.1231,80.2644,29.17,77,100,0.4,1612812186
507,Aklavik,68.2191,-135.0107,-36.4,67,100,4.61,1612811964
508,Lae,-6.7221,146.9847,78.4,75,74,6.06,1612812188
509,Aitape,-3.1374,142.3475,77.41,87,100,1.48,1612812189
510,Cururupu,-1.8283,-44.8683,87.57,56,4,7.92,1612812192
511,Nakhon Phanom,17.3333,104.4167,67.5,75,67,8.32,1612812193
512,Puerto Gaitán,4.3133,-72.0816,95.9,35,73,15.75,1612812194
513,Birobidzhan,48.8,132.95,-2.42,87,100,5.14,1612812195
514,Marawi,7.9986,124.2928,75.0,93,100,5.01,1612812197
515,San Ignacio,17.1561,-89.0714,87.8,62,75,7.56,1612812198
516,Eskil,38.4017,33.4131,51.19,46,100,24.47,1612812199
517,Porto-Novo,6.4965,2.6036,84.2,79,20,12.66,1612812200
518,Walvis Bay,-22.9575,14.5053,64.4,82,98,9.22,1612812076
519,La Penne-sur-Huveaune,43.2821,5.5164,48.0,88,100,6.38,1612812203
520,Monkey Bay,-14.0728,34.9201,80.91,69,100,3.69,1612812204
521,Zaysan,47.4667,84.8667,36.77,80,100,2.44,1612812205
522,Marystown,47.1666,-55.1483,32.52,96,100,31.41,1612812206
523,Tamiahua,21.2667,-97.45,76.3,78,22,11.16,1612812207
524,Amudat,1.95,34.95,73.17,58,92,5.82,1612812208
525,Guangming,45.3333,122.7833,8.92,89,0,10.27,1612812211
526,Toamasina,-18.1667,49.3833,78.8,89,40,4.61,1612812212
527,Manoel Urbano,-8.8389,-69.2597,83.08,87,100,3.33,1612812214
528,Tabou,4.423,-7.3528,79.54,85,100,5.32,1612812215
529,Inírida,3.8653,-67.9239,88.47,59,92,3.8,1612812216
530,Altay,47.8667,88.1167,31.41,88,100,1.9,1612812217
531,Ibipeba,-11.6408,-42.0111,82.02,56,99,5.03,1612812218
532,Ust-Maya,60.4167,134.5333,-19.64,87,100,2.13,1612812219
533,Vallenar,-28.5708,-70.7581,87.62,18,0,10.4,1612812221
534,Palmer,42.1584,-72.3287,28.99,33,20,3.44,1612812222
535,Sancti Spíritus,21.9297,-79.4425,87.82,42,0,13.06,1612812223
536,Haines Junction,60.7522,-137.5108,-18.4,83,100,3.44,1612812224
537,Alghero,40.5589,8.3181,57.2,94,40,13.8,1612812225
538,Gelibolu,40.4103,26.6708,64.4,63,75,26.46,1612812228
539,Havøysund,70.9963,24.6622,24.8,86,75,16.11,1612812129
540,San Felipe,10.3399,-68.7425,81.75,66,45,8.84,1612812230
541,Magadan,59.5667,150.8,10.65,89,100,12.75,1612812231
542,Chimbote,-9.0853,-78.5783,76.59,63,61,11.41,1612812233
543,Kānkon,15.0167,74.0167,77.0,69,0,8.05,1612812234
544,Xingyi,24.1877,102.817,40.48,96,100,2.95,1612812237
545,Weiser,44.251,-116.9693,42.8,36,20,5.75,1612812238
546,Little Current,45.9793,-81.9248,16.0,73,97,8.05,1612812240
547,Sabha,27.0377,14.4283,60.55,30,100,6.58,1612812241
548,Vagay,57.9375,69.0217,-9.42,91,100,5.3,1612812242
549,Sanandij,35.3144,46.9923,45.91,56,100,3.18,1612812054
550,Coos Bay,43.3665,-124.2179,44.01,81,1,6.58,1612812245
551,Parabel',58.6978,81.4825,11.34,96,100,13.6,1612812247
552,Myaundzha,63.0494,147.1858,-15.81,81,13,5.53,1612812248
553,Phan Thiet,10.9333,108.1,70.99,83,0,6.89,1612812249
554,Lembang,-6.8117,107.6175,62.24,100,100,1.72,1612812250
555,Karratha,-20.7377,116.8463,79.07,73,9,13.56,1612812251
556,Krasnoarmeysk,51.0239,45.6969,0.0,54,0,4.0,1612812253
557,Abu Kamal,34.4506,40.9171,62.73,41,100,8.34,1612812255
558,Cap Malheureux,-19.9842,57.6142,78.01,79,10,3.0,1612812256
559,Kuandian,40.7286,124.7847,8.55,88,0,2.77,1612812257
560,Jijiga,9.35,42.8,60.03,62,94,10.69,1612812258
561,Biltine,14.5333,20.9167,72.23,18,1,10.76,1612812259
562,Ambilobe,-13.2,49.05,76.08,92,100,2.93,1612812005
563,Gornyye Klyuchi,45.25,133.5,-8.52,89,31,5.97,1612812262
564,Portland,45.5234,-122.6762,45.0,65,75,3.44,1612811748
565,Aginskoye,51.1,114.53,10.27,91,61,5.73,1612812264
