,City,Country,Latitude,Longitude,Max Temperature (F),Humidity (%),Cloud Cover (%),Wind Speed (mph),Date
0,Bredasdorp,ZA,-34.5322,20.0403,57.2,94,5,1.14,1612845468
1,Cherskiy,RU,68.75,161.3,6.89,84,62,7.58,1612845715
2,Vaini,TO,-21.2,-175.2,80.6,89,75,18.41,1612845716
3,Shiyan,CN,32.6475,110.7781,50.0,37,100,1.01,1612845718
4,Kikwit,CD,-5.041,18.8162,71.22,90,100,2.21,1612845720
5,Cape Town,ZA,-33.9258,18.4232,69.01,88,20,16.11,1612845475
6,Hasaki,JP,35.7333,140.8333,48.0,19,20,17.27,1612845497
7,Kapaa,US,22.0752,-159.319,69.8,78,90,14.97,1612845723
8,Phan Thiet,VN,10.9333,108.1,86.23,49,0,10.6,1612845594
9,Jieshi,CN,22.8134,115.8257,73.0,57,97,21.65,1612845726
10,São Félix do Xingu,BR,-6.6447,-51.995,72.97,96,100,1.77,1612845727
11,Ushuaia,AR,-54.8,-68.3,55.4,76,20,16.11,1612845662
12,Bluff,NZ,-46.6,168.3333,53.46,89,100,12.86,1612845460
13,Airai,TL,-8.9266,125.4092,69.89,91,100,5.3,1612845725
14,Rikitea,PF,-23.1203,-134.9692,77.97,72,24,7.67,1612845731
15,Yellowknife,CA,62.456,-114.3525,-25.6,68,90,20.71,1612845515
16,Manado,ID,1.487,124.8455,91.4,55,20,9.22,1612845734
17,Khatanga,RU,71.9667,102.5,-20.2,83,26,9.37,1612845735
18,Harper,LR,4.375,-7.7169,77.94,86,93,2.91,1612845555
19,Carnarvon,AU,-24.8667,113.6333,82.4,94,0,20.71,1612845717
20,Mataura,NZ,-46.1927,168.8643,52.3,96,100,6.49,1612845740
21,Hobart,AU,-42.8794,147.3294,64.0,51,75,8.05,1612845741
22,Powell,US,40.1578,-83.0752,27.0,74,90,3.44,1612845729
23,Saldanha,ZA,-33.0117,17.9442,62.6,88,0,10.36,1612845723
24,Ilulissat,GL,69.2167,-51.1,24.8,42,0,26.46,1612845745
25,Cayenne,GF,4.9333,-52.3333,77.0,83,20,2.3,1612845732
26,Husavik,IS,66.0449,-17.3389,26.6,100,90,7.92,1612845748
27,Klamath Falls,US,42.2249,-121.7817,39.0,35,90,3.44,1612845670
28,Atuona,PF,-9.8,-139.0333,79.68,78,84,19.71,1612845716
29,Hithadhoo,MV,-0.6,73.0833,82.72,79,97,12.08,1612845466
30,Upernavik,GL,72.7868,-56.1549,14.23,79,0,6.93,1612845757
31,Saint-Joseph,RE,-21.3667,55.6167,86.0,45,0,5.75,1612845758
32,Albany,US,42.6001,-73.9662,16.0,61,89,2.15,1612845495
33,Arlit,NE,18.7369,7.3853,68.5,19,100,8.25,1612845760
34,Kirakira,SB,-10.4544,161.9205,83.95,76,66,8.68,1612845761
35,Kahului,US,20.8947,-156.47,75.2,64,20,16.11,1612845729
36,Ibaiti,BR,-23.8486,-50.1878,62.01,99,0,1.99,1612845765
37,Qaanaaq,GL,77.484,-69.3632,19.58,79,86,6.42,1612845717
38,Touros,BR,-5.1989,-35.4608,78.8,83,40,2.3,1612845767
39,San Borja,BO,-14.8167,-66.85,74.75,94,100,1.48,1612845768
40,Nandu,CN,22.8525,110.8233,59.25,87,100,6.17,1612845771
41,Punta Arenas,CL,-53.15,-70.9167,51.8,82,0,4.61,1612845772
42,Amuntai,ID,-2.4177,115.2494,88.59,63,94,1.07,1612845774
43,Talnakh,RU,69.4865,88.3972,-6.43,87,74,3.96,1612845775
44,Praxédis Guerrero,MX,31.3667,-106.0167,62.6,15,1,3.29,1612845776
45,Portland,US,45.5234,-122.6762,39.99,65,1,1.77,1612845674
46,Esfarāyen,IR,37.0765,57.5101,37.4,87,0,3.02,1612845779
47,Bathsheba,BB,13.2167,-59.5167,77.0,65,40,18.41,1612845780
48,Vagos,PT,40.556,-8.6817,60.01,93,100,3.0,1612845781
49,Butaritari,KI,3.0707,172.7902,81.91,82,40,21.5,1612845782
50,Mahébourg,MU,-20.4081,57.7,82.4,69,40,4.61,1612845784
51,Kalmunai,LK,7.4167,81.8167,78.66,75,94,16.4,1612845785
52,Kristinehamn,SE,59.3098,14.1081,17.6,86,90,9.22,1612845786
53,Pengcheng,CN,36.4311,114.17,54.9,36,0,6.91,1612845787
54,Bubaque,GW,11.2833,-15.8333,77.49,59,0,16.08,1612845788
55,Hilo,US,19.7297,-155.09,73.4,78,75,4.61,1612845703
56,Vinh Long,VN,10.25,105.9667,86.0,74,40,9.22,1612845791
57,Bethel,US,41.3712,-73.414,18.0,79,1,0.96,1612845793
58,Puerto Ayora,EC,-0.7393,-90.3518,78.01,95,100,2.62,1612845794
59,Hermanus,ZA,-34.4187,19.2345,63.0,91,1,1.01,1612845795
60,Codrington,AU,-38.2667,141.9667,67.48,58,0,14.5,1612845798
61,Kiryat Gat,IL,31.61,34.7642,59.0,57,100,5.66,1612845799
62,Mar del Plata,AR,-38.0023,-57.5575,64.0,72,75,11.5,1612845800
63,Pevek,RU,69.7008,170.3133,-0.92,72,97,4.92,1612845801
64,Marsh Harbour,BS,26.5412,-77.0636,74.59,87,0,10.69,1612845802
65,Mahon,ES,39.8885,4.2658,53.6,76,0,8.05,1612845803
66,Bilibino,RU,68.0546,166.4372,-1.91,81,43,4.47,1612845804
67,Fereydūnkenār,IR,36.6864,52.5225,48.2,100,90,3.96,1612845806
68,Praia,CV,14.9215,-23.5087,68.0,77,20,16.11,1612845807
69,Agde,FR,43.3108,3.4758,48.99,81,20,8.05,1612845808
70,Pontianak,ID,-0.0333,109.3333,86.0,66,40,5.75,1612845809
71,Faanui,PF,-16.4833,-151.75,81.75,76,22,11.77,1612845810
72,New Norfolk,AU,-42.7826,147.0587,64.0,50,69,1.01,1612845811
73,Port Alfred,ZA,-33.5906,26.891,68.0,90,6,4.27,1612845813
74,Bagdarin,RU,54.4333,113.6,24.35,88,31,1.03,1612845814
75,Ancud,CL,-41.8697,-73.8203,57.99,87,87,1.61,1612845815
76,Gaya,IN,24.7833,85.0,68.0,52,0,4.61,1612845816
77,Salinópolis,BR,-0.6136,-47.3561,79.3,84,100,11.9,1612845796
78,Coleraine,GB,55.1333,-6.6667,32.0,86,20,8.05,1612845818
79,Bandarbeyla,SO,9.4942,50.8122,74.66,68,72,23.71,1612845748
80,Khandyga,RU,62.6667,135.6,-17.14,85,2,1.99,1612845821
81,Bengkulu,ID,-3.8004,102.2655,86.65,56,70,8.5,1612845823
82,Bosaso,SO,11.2842,49.1816,77.0,73,0,14.97,1612845729
83,Palmer,US,42.1584,-72.3287,17.01,79,75,1.16,1612845825
84,Leshukonskoye,RU,64.8989,45.7622,-24.21,87,14,4.21,1612845826
85,Riviere-au-Renard,CA,48.9957,-64.3971,17.6,62,75,19.57,1612845828
86,Mount Gambier,AU,-37.8333,140.7667,75.2,35,0,4.61,1612845687
87,Opunake,NZ,-39.4556,173.8583,68.0,83,100,8.99,1612845830
88,Muzhi,RU,65.3667,64.6667,-26.99,85,74,7.02,1612845831
89,Dhanbad,IN,23.8,86.45,75.52,24,0,2.51,1612845832
90,Barrow,US,71.2906,-156.7887,-34.6,84,1,12.66,1612845624
91,Oodweyne,SO,9.4092,45.064,67.86,54,50,28.21,1612845835
92,Sangar,RU,63.9242,127.4739,-10.52,87,100,3.53,1612845836
93,Jamestown,US,42.097,-79.2353,19.99,93,90,4.61,1612845777
94,Nikolskoye,RU,59.7035,30.7861,6.8,85,75,1.7,1612845838
95,Karīmnagar,IN,18.4333,79.15,79.59,17,7,2.17,1612845839
96,Beringovskiy,RU,63.05,179.3167,1.63,93,100,7.25,1612845840
97,Inzhavino,RU,52.3185,42.4937,-3.84,89,45,8.32,1612845842
98,Arraial do Cabo,BR,-22.9661,-42.0278,70.68,81,100,6.24,1612845844
99,Seoul,KR,37.5683,126.9778,39.2,25,0,8.05,1612845578
100,Kulhudhuffushi,MV,6.6221,73.07,81.64,64,35,3.87,1612845846
101,Busselton,AU,-33.65,115.3333,69.01,62,72,11.99,1612845847
102,Sarangani,PH,5.4033,125.4636,82.85,72,98,3.69,1612845848
103,Kavieng,PG,-2.5744,150.7967,84.25,75,18,9.89,1612845850
104,Khasan,RU,42.4308,130.6434,24.89,88,94,5.41,1612845851
105,Hong Kong,HK,22.2855,114.1577,68.0,71,77,1.01,1612845651
106,Klaksvík,FO,62.2266,-6.589,28.4,86,20,5.75,1612845853
107,Hofn,IS,64.2539,-15.2082,31.3,90,100,14.18,1612845854
108,Severo-Kuril'sk,RU,50.6789,156.125,23.34,87,64,12.44,1612845856
109,Coruripe,BR,-10.1256,-36.1756,77.68,79,39,9.89,1612845615
110,Cidreira,BR,-30.1811,-50.2056,72.39,79,70,14.99,1612845858
111,Mahabalipuram,IN,12.6264,80.1722,82.4,51,40,11.5,1612845608
112,Tegul'det,RU,57.3064,88.1667,6.46,90,100,17.92,1612845860
113,Kathu,TH,7.9178,98.3332,87.01,62,20,6.91,1612845861
114,Souillac,MU,-20.5167,57.5167,82.4,69,40,4.61,1612845729
115,Rio Negrinho,BR,-26.2544,-49.5183,55.99,95,59,1.01,1612845864
116,East London,ZA,-33.0153,27.9116,60.8,94,0,1.14,1612845707
117,Tuktoyaktuk,CA,69.4541,-133.0374,-43.6,73,1,4.61,1612845702
118,Sergeevka,KZ,53.88,67.4158,-9.38,88,100,15.97,1612845867
119,São José da Coroa Grande,BR,-8.8978,-35.1478,76.89,83,47,7.31,1612845868
120,Sonoita,MX,31.85,-112.8333,63.0,23,0,5.17,1612845869
121,North Bend,US,43.4065,-124.2243,44.6,76,40,8.05,1612845871
122,Vondrozo,MG,-22.8167,47.2833,73.4,97,95,3.22,1612845872
123,Sitka,US,57.0531,-135.33,21.2,58,90,11.5,1612845703
124,Bambous Virieux,MU,-20.3428,57.7575,82.99,69,40,4.61,1612845711
125,Beira,MZ,-19.8436,34.8389,77.7,92,27,7.85,1612845875
126,Pimentel,PE,-6.8367,-79.9342,66.99,90,100,1.99,1612845876
127,Yangi Marg`ilon,UZ,40.4272,71.7189,50.0,76,71,7.47,1612845877
128,George Town,MY,5.4112,100.3354,87.8,66,40,4.61,1612845615
129,Viedma,AR,-40.8135,-62.9967,55.0,81,0,10.09,1612845880
130,Pisco,PE,-13.7,-76.2167,71.6,78,75,2.3,1612845881
131,Verāval,IN,20.9,70.3667,81.34,26,6,6.38,1612845706
132,Batagay-Alyta,RU,67.8006,130.4114,-19.32,78,1,4.45,1612845883
133,Marrakesh,MA,31.6315,-8.0083,50.0,93,4,2.3,1612845884
134,Japura,ID,-0.3167,102.35,88.74,58,97,2.62,1612845886
135,San Miguel de Cozumel,MX,20.5083,-86.9458,77.0,90,11,1.99,1612845874
136,Wanning,CN,18.8003,110.3967,74.62,81,81,12.17,1612845888
137,Awjilah,LY,29.1081,21.2869,53.29,52,84,6.15,1612845889
138,Tutóia,BR,-2.7619,-42.2744,78.98,86,100,10.25,1612845890
139,Poltavka,RU,54.3663,71.7632,-5.82,88,100,16.71,1612845891
140,Kruisfontein,ZA,-34.0033,24.7314,66.58,68,0,4.18,1612845893
141,Hay River,CA,60.8156,-115.7999,-22.0,76,100,20.71,1612845894
142,Tasiilaq,GL,65.6145,-37.6368,19.4,58,75,28.77,1612845895
143,Deogarh,IN,21.5333,84.7333,85.08,14,0,2.01,1612845896
144,Saint-Philippe,RE,-21.3585,55.7679,86.0,45,0,5.75,1612845897
145,Pandamatenga,BW,-18.5278,25.627,66.04,96,100,5.1,1612845900
146,Beidao,CN,34.5686,105.8933,54.86,40,0,3.51,1612845903
147,Bowen,AU,-20.0167,148.2333,86.0,70,40,16.11,1612845905
148,Ōdachō-ōda,JP,35.1833,132.5,44.6,49,40,17.27,1612845907
149,Grand Gaube,MU,-20.0064,57.6608,82.99,72,9,7.0,1612845908
150,Erdenet,MN,49.0333,104.0833,19.62,90,57,4.61,1612845909
151,Gravelbourg,CA,49.8834,-106.5512,-18.4,63,0,21.85,1612845910
152,Hamilton,US,39.1834,-84.5333,27.0,93,90,4.36,1612845803
153,Saskylakh,RU,71.9167,114.0833,-29.34,84,29,2.04,1612845912
154,Naze,JP,28.3667,129.4833,60.8,55,75,13.8,1612845705
155,Zaraza,VE,9.3503,-65.3245,73.38,84,35,4.03,1612845915
156,Kampot,KH,10.6167,104.1833,84.2,61,20,10.36,1612845916
157,Pochutla,MX,15.7432,-96.4661,75.0,78,0,3.62,1612845918
158,Cockburn Town,TC,21.4612,-71.1419,77.59,77,6,23.69,1612845921
159,Gizo Government Station,SB,-8.103,156.8419,84.18,75,76,13.29,1612845922
160,Longyearbyen,SJ,78.2186,15.6401,10.4,52,0,2.3,1612845923
161,Ponta do Sol,PT,32.6667,-17.1,57.99,78,25,3.0,1612845711
162,Hoquiam,US,46.9809,-123.8893,36.0,80,1,3.44,1612845925
163,Alibunar,RS,45.0808,20.9658,44.01,87,0,8.37,1612845926
164,Sawai Madhopur,IN,25.9833,76.3667,72.91,25,6,3.51,1612845927
165,Sur,OM,22.5667,59.5289,75.47,51,97,16.55,1612845929
166,Cabo San Lucas,MX,22.8909,-109.9124,64.0,82,1,11.5,1612845893
167,Tiznit Province,MA,29.5833,-9.5,52.92,83,91,2.64,1612845932
168,Port Elizabeth,ZA,-33.918,25.5701,62.6,88,0,4.61,1612845739
169,Pervomayskiy,RU,53.2485,40.2871,-1.62,90,84,9.53,1612845934
170,Dongsheng,CN,39.8161,109.9776,34.59,66,0,9.15,1612845738
171,Deputatsky,RU,69.3,139.9,-23.69,89,48,1.63,1612845937
172,Saint George,US,37.1041,-113.5841,52.0,25,1,0.16,1612845661
173,Castro,BR,-24.7911,-50.0119,56.77,95,37,9.53,1612845939
174,Avarua,CK,-21.2078,-159.775,84.2,74,75,5.75,1612845940
175,Chicama,PE,-7.8447,-79.1469,72.59,73,100,5.88,1612845941
176,Lerwick,GB,60.1545,-1.1494,31.62,88,99,8.75,1612845757
177,St. George's,GD,12.0564,-61.7485,77.0,73,20,11.5,1612845944
178,Lebu,CL,-37.6167,-73.65,58.98,93,42,10.13,1612845945
179,Great Falls,US,47.5002,-111.3008,-11.2,76,75,3.44,1612845743
180,Korla,CN,41.7597,86.1469,39.25,60,77,3.89,1612845947
181,Olafsvik,IS,64.8945,-23.7142,32.5,93,17,20.67,1612845949
182,San Antonio,US,29.4241,-98.4936,64.4,88,1,6.91,1612845950
183,Tosya,TR,41.0155,34.0401,45.1,62,89,8.57,1612845951
184,Lorengau,PG,-2.0226,147.2712,83.73,78,9,5.86,1612845952
185,Cuxhaven,DE,53.8718,8.6909,27.0,80,75,21.85,1612845713
186,Buala,SB,-8.145,159.5921,84.88,71,86,9.89,1612845955
187,Ahipara,NZ,-35.1667,173.1667,70.84,76,100,10.38,1612845747
188,Tromsø,NO,69.6496,18.957,19.99,93,90,4.61,1612845957
189,Vangaindrano,MG,-23.35,47.6,79.27,87,98,3.31,1612845958
190,Lagoa,PT,39.05,-27.9833,59.49,85,100,24.56,1612845959
191,Sakakah,SA,29.9697,40.2064,48.2,81,0,4.92,1612845960
192,Skagen,DK,57.7209,10.5839,21.0,78,97,21.99,1612845962
193,Aldan,RU,58.6031,125.3894,5.72,93,99,1.7,1612845963
194,Thompson,CA,55.7435,-97.8558,-14.8,70,90,8.05,1612845731
195,Isangel,VU,-19.55,169.2667,87.8,66,20,5.75,1612845965
196,Kpandu,GH,6.9954,0.2931,79.02,79,32,1.74,1612845966
197,Anadyr,RU,64.75,177.4833,8.6,72,75,15.66,1612845967
198,Alyangula,AU,-13.8483,136.4192,89.6,62,40,10.36,1612845969
199,Samarai,PG,-10.6167,150.6667,85.78,70,100,8.57,1612845970
200,Grindavik,IS,63.8424,-22.4338,30.2,80,0,11.5,1612845971
201,Caravelas,BR,-17.7125,-39.2481,71.42,95,100,3.18,1612845972
202,Jinchang,CN,38.4953,102.1739,43.74,44,62,3.22,1612845974
203,Olinda,BR,-8.0089,-34.8553,78.8,69,40,6.91,1612845976
204,Laguna,US,38.421,-121.4238,57.0,71,75,3.44,1612845977
205,Te Anau,NZ,-45.4167,167.7167,53.06,86,99,5.84,1612845978
206,Salalah,OM,17.0151,54.0924,75.2,53,20,9.22,1612845850
207,Aktobe,KZ,50.2797,57.2072,-11.2,64,0,13.42,1612845980
208,Elizabethtown,US,37.694,-85.8591,33.8,80,1,3.44,1612845981
209,Puro,PH,12.4841,123.3827,76.68,83,100,17.29,1612845982
210,Daru,PG,-9.0763,143.2092,87.46,64,100,4.25,1612845984
211,Baharly,TM,38.4362,57.4316,55.45,55,45,2.06,1612845985
212,Margate,GB,51.3813,1.3862,32.0,61,100,4.0,1612845930
213,Yeppoon,AU,-23.1333,150.7333,86.0,51,40,11.5,1612845987
214,Half Moon Bay,US,37.4636,-122.4286,52.0,93,90,4.61,1612845914
215,Phek,IN,25.6667,94.5,66.97,37,1,0.63,1612845991
216,Dikson,RU,73.5069,80.5464,-29.85,86,88,12.35,1612845994
217,Nong Khai,TH,17.9167,103.0833,77.0,89,99,4.56,1612845996
218,Hondomachi-hondo,JP,32.45,130.2,50.0,37,0,9.22,1612845998
219,Feldru,RO,47.2833,24.6,35.01,74,56,3.0,1612845999
220,Constitución,CL,-35.3333,-72.4167,59.63,85,1,7.29,1612846000
221,Rundu,NA,-17.9333,19.7667,67.44,94,100,6.13,1612846001
222,Katsuura,JP,35.1333,140.3,48.2,18,20,11.5,1612845731
223,Fortuna,US,40.5982,-124.1573,46.0,93,90,1.39,1612846003
224,Tarko-Sale,RU,64.9225,77.785,-12.1,90,74,7.34,1612846006
225,Tigil',RU,57.8,158.6667,21.36,93,100,12.01,1612846007
226,Nioro,GM,13.35,-15.75,69.26,22,41,6.62,1612846008
227,Dingle,PH,10.9995,122.6711,76.64,90,87,11.03,1612845723
228,Teya,RU,60.3778,92.6267,16.95,91,83,18.14,1612846011
229,Bhatkal,IN,13.9667,74.5667,84.54,35,1,3.49,1612846013
230,El Salvador,SV,13.8333,-88.9167,75.2,88,0,2.3,1612845938
231,Esperance,AU,-33.8667,121.9,75.2,46,40,5.75,1612846016
232,Penzance,GB,50.1186,-5.5371,35.6,80,90,27.63,1612845926
233,Superior,US,46.7208,-92.1041,-7.01,59,1,8.05,1612846018
234,Marawi,PH,7.9986,124.2928,81.0,84,100,5.99,1612846020
235,Kaitangata,NZ,-46.2817,169.8464,57.0,82,100,15.99,1612846021
236,Comodoro Rivadavia,AR,-45.8667,-67.5,64.4,68,0,4.61,1612846022
237,Yulara,AU,-25.2406,130.9889,102.2,18,40,10.36,1612846023
238,Pitimbu,BR,-7.4706,-34.8086,77.0,88,20,3.44,1612846024
239,Lobito,AO,-12.3481,13.5456,75.99,78,100,4.12,1612846025
240,Panguna,PG,-6.3164,155.4848,78.94,80,89,4.0,1612846027
241,Abadan,TM,38.0507,58.2056,39.2,100,8,4.61,1612846028
242,Tuatapere,NZ,-46.1333,167.6833,52.16,92,100,10.04,1612846029
243,Ishigaki,JP,24.3448,124.1572,69.8,60,75,17.27,1612846030
244,Camacupa,AO,-12.0167,17.4833,59.97,92,100,1.41,1612846032
245,Chifeng,CN,42.2683,118.9636,30.97,90,0,8.32,1612846034
246,Laas,IT,46.6166,10.7002,30.99,86,0,2.91,1612846035
247,Grand Forks,US,47.9417,-97.4337,-9.4,59,1,14.97,1612846036
248,San Patricio,US,28.017,-97.5169,71.6,88,90,5.75,1612846038
249,Asău,RO,46.4333,26.4,43.0,70,0,10.36,1612846039
250,Malanje,AO,-9.5402,16.341,64.08,90,100,7.67,1612846041
251,Borba,BR,-4.3878,-59.5939,74.91,96,99,0.45,1612846042
252,Nanortalik,GL,60.1432,-45.2371,28.96,90,97,8.99,1612846043
253,Iqaluit,CA,63.7506,-68.5145,19.4,86,75,2.66,1612846044
254,Dāmghān,IR,36.1683,54.348,48.49,64,12,2.8,1612846045
255,Pinheiro Machado,BR,-31.5783,-53.3811,62.01,99,74,10.0,1612846046
256,Katangli,RU,51.7102,143.2326,9.34,93,100,13.11,1612846048
257,Mezen',RU,65.8522,44.24,-12.71,90,100,3.91,1612846049
258,Praia da Vitória,PT,38.7333,-27.0667,59.0,77,20,13.51,1612846050
259,Lompoc,US,34.6391,-120.4579,51.8,82,90,2.71,1612846051
260,Grand Haven,US,43.0631,-86.2284,15.8,73,90,3.44,1612846052
261,Tiksi,RU,71.6872,128.8694,-24.21,87,66,3.94,1612846053
262,Manggar,ID,-2.8833,108.2667,85.64,68,100,10.38,1612846054
263,Honiara,SB,-9.4333,159.95,82.9,79,100,9.42,1612846056
264,Naryan-Mar,RU,67.6713,53.087,-11.56,89,100,11.61,1612846057
265,Ostrovnoy,RU,68.0531,39.5131,10.04,92,94,15.26,1612846058
266,Zhicheng,CN,30.2956,111.5047,57.99,50,100,3.0,1612846059
267,Jablah,SY,35.3614,35.9256,53.6,62,0,3.44,1612846060
268,Pelagiada,RU,45.2064,42.0236,28.4,86,0,20.13,1612846061
269,Uttaradit,TH,17.6667,100.5,75.0,68,40,4.61,1612846063
270,Ol'ga,RU,43.7444,135.2892,19.51,75,35,14.5,1612846064
271,Aykhal,RU,66.0,111.5,-12.46,87,66,5.57,1612846065
272,Matagami,CA,49.7502,-77.6328,-2.2,92,40,5.75,1612846066
273,Saint-François,FR,46.4154,3.9054,33.01,100,90,5.75,1612846067
274,Grand-Santi,GF,4.25,-54.3833,69.98,97,15,2.19,1612846068
275,Lavrentiya,RU,65.5833,-171.0,-4.4,84,100,11.12,1612846069
276,Oyama,JP,36.3,139.8,48.99,18,40,21.85,1612846071
277,Canavieiras,BR,-15.675,-38.9472,74.97,86,99,3.98,1612846072
278,Port Dover,CA,42.7834,-80.1997,17.01,85,100,1.14,1612846073
279,Zonhoven,BE,50.9914,5.3709,21.0,79,100,9.22,1612846074
280,Pyapon,MM,16.2833,95.6833,85.46,21,71,5.93,1612846046
281,Port Hardy,CA,50.6996,-127.4199,37.4,80,1,6.91,1612846076
282,Winnemucca,US,40.973,-117.7357,39.2,38,90,3.44,1612846078
283,La Ronge,CA,55.1001,-105.2842,-18.4,63,100,12.66,1612846079
284,Hauterive,FR,46.0901,3.4459,33.8,93,90,6.91,1612846080
285,Pilar,BR,-9.5972,-35.9567,73.4,94,20,2.3,1612846081
286,Rome,US,43.2128,-75.4557,16.0,57,90,6.91,1612845966
287,Bambanglipuro,ID,-7.95,110.2833,84.81,69,63,8.23,1612846083
288,Tūkrah,LY,32.5341,20.5791,56.62,67,0,9.28,1612846085
289,Nikolayevka,RU,53.1257,47.2041,-9.04,83,0,4.12,1612846086
290,Chokurdakh,RU,70.6333,147.9167,-12.1,86,7,9.91,1612846087
291,Resavica,RS,44.0408,21.5816,37.0,7,50,3.94,1612846088
292,Oktyabr'skiy,RU,54.4815,53.471,-17.66,86,54,6.8,1612846089
293,Eyl,SO,7.9803,49.8164,76.59,64,62,22.1,1612846090
294,Harindānga,IN,22.0383,88.3214,73.4,49,0,5.75,1612846092
295,Atamanovka,RU,51.93,113.63,24.8,50,85,2.24,1612846093
296,Atar,MR,20.5169,-13.0499,57.06,37,0,9.08,1612846094
297,Miles City,US,46.4083,-105.8406,-7.6,77,90,5.75,1612846095
298,São Filipe,CV,14.8961,-24.4956,69.69,75,99,9.84,1612846096
299,Geraldton,AU,-28.7667,114.6,75.2,53,75,12.66,1612846097
300,Okahandja,NA,-21.9833,16.9167,66.0,88,96,4.61,1612846099
301,Khāsh,IR,28.2211,61.2158,56.44,37,62,4.99,1612846100
302,Labuhan,ID,-6.8844,112.2051,82.63,82,79,16.33,1612846101
303,Luanda,AO,-8.8368,13.2343,78.89,73,100,4.05,1612845981
304,Coquimbo,CL,-29.9533,-71.3436,60.8,77,0,3.44,1612846103
305,Qasigiannguit,GL,68.8193,-51.1922,24.8,42,0,26.46,1612846104
306,Arman',RU,59.7,150.1667,10.0,88,64,13.4,1612846106
307,Namatanai,PG,-3.6667,152.4333,83.48,78,31,8.48,1612846107
308,Norman Wells,CA,65.282,-126.8329,-41.8,66,1,2.3,1612846108
309,Taksimo,RU,56.3444,114.8794,13.05,90,48,2.06,1612846109
310,Riyadh,SA,24.6877,46.7219,51.8,71,0,5.75,1612845813
311,Labuan,MY,5.2767,115.2417,82.4,83,20,4.61,1612846111
312,Klyuchi,RU,52.2667,79.1667,-1.89,87,24,19.91,1612846112
313,Ribeira Grande,PT,38.5167,-28.7,60.78,87,99,21.16,1612846114
314,Padang,ID,-0.9492,100.3543,87.8,66,40,6.91,1612846055
315,Bousso,TD,10.4795,16.7117,64.24,25,83,3.02,1612846117
316,Chiredzi,ZW,-21.05,31.6667,72.09,89,30,5.28,1612846119
317,Provideniya,RU,64.3833,-173.3,5.0,78,75,17.9,1612846121
318,Kenai,US,60.5544,-151.2583,1.0,78,1,3.44,1612846122
319,Topolobampo,MX,25.6,-109.05,59.0,72,1,4.94,1612846123
320,Okakarara,NA,-20.5833,17.4333,65.98,84,100,4.74,1612846124
321,Mathbaria,BD,22.2876,89.9593,81.64,22,0,7.2,1612846125
322,Visnes,NO,59.3556,5.2242,21.0,62,0,9.22,1612846126
323,Huarmey,PE,-10.0681,-78.1522,71.42,81,100,6.82,1612846127
324,Nortelândia,BR,-14.4547,-56.8028,70.83,68,55,3.09,1612846129
325,Leningradskiy,RU,69.3833,178.4167,-23.4,84,71,10.56,1612846130
326,Rothes,GB,57.5262,-3.2066,24.01,93,75,3.44,1612846131
327,Soria,ES,41.6667,-2.6667,37.99,100,100,16.6,1612846132
328,Shemordan,RU,56.1856,50.3972,-15.84,89,77,11.25,1612846133
329,Kargasok,RU,59.0556,80.8572,6.15,94,90,9.33,1612846134
330,Waipawa,NZ,-41.4122,175.5153,75.2,57,20,23.02,1612846136
331,Houston,US,29.7633,-95.3633,64.0,94,90,4.61,1612846110
332,Chui,UY,-33.6971,-53.4616,63.99,93,21,0.58,1612846139
333,Unaí,BR,-16.3575,-46.9061,66.87,92,8,4.34,1612846140
334,Qui Nhon,VN,13.7667,109.2333,78.04,76,42,9.13,1612846142
335,Río Gallegos,AR,-51.6226,-69.2181,60.8,67,0,3.44,1612846145
336,Kalabo,ZM,-14.97,22.6814,67.89,95,100,6.17,1612846146
337,Kodīnar,IN,20.7903,70.7031,82.78,20,1,6.93,1612846147
338,Saint Anthony,US,45.0205,-93.218,-5.8,65,1,6.91,1612846148
339,Sirte,LY,31.2089,16.5887,60.66,37,0,12.33,1612846149
340,Sisimiut,GL,66.9395,-53.6735,21.06,76,0,8.25,1612846152
341,Saraland,US,30.8207,-88.0706,55.99,92,100,4.29,1612846153
342,Meulaboh,ID,4.1363,96.1285,85.89,63,81,3.8,1612846154
343,Urusha,RU,54.05,122.9,14.56,91,97,4.21,1612846156
344,Darhan,MN,49.4867,105.9228,17.46,89,3,8.37,1612846157
345,Mehamn,NO,71.0357,27.8492,21.2,79,75,16.11,1612846159
346,Sioux Lookout,CA,50.1001,-91.917,-20.2,69,1,9.22,1612846160
347,Aksarka,RU,66.5606,67.7975,-26.45,85,19,8.19,1612846161
348,Tautira,PF,-17.7333,-149.15,80.6,69,20,3.44,1612846163
349,Verkhoyansk,RU,67.5447,133.385,-25.58,80,0,0.85,1612846164
350,Juye,CN,35.3947,116.0883,51.03,42,0,11.45,1612846166
351,Cuenca,EC,-2.8833,-78.9833,57.2,94,87,3.44,1612846167
352,Zaria,NG,11.1113,7.7227,63.14,26,5,9.42,1612846168
353,Kloulklubed,PW,7.0419,134.2556,84.2,70,75,11.5,1612846169
354,Mbuji-Mayi,CD,-6.15,23.6,69.64,94,100,0.56,1612846170
355,Junction City,US,39.0286,-96.8314,8.01,78,90,8.05,1612846172
356,Ribeira Brava,PT,32.65,-17.0667,57.99,77,17,3.0,1612846173
357,San Quintín,MX,30.4833,-115.95,57.13,82,0,2.42,1612845968
358,Vila Franca do Campo,PT,37.7167,-25.4333,60.8,94,75,20.71,1612846175
359,Guiratinga,BR,-16.3494,-53.7583,71.6,75,30,3.49,1612846176
360,Chumikan,RU,54.7183,135.315,1.2,85,100,21.43,1612846177
361,Banda Aceh,ID,5.5577,95.3222,85.82,65,7,12.08,1612846114
362,Torbay,CA,47.6666,-52.7314,32.0,100,90,27.63,1612846180
363,College,US,64.8569,-147.8028,-16.6,57,1,9.22,1612846181
364,Richards Bay,ZA,-28.783,32.0377,75.87,88,68,1.48,1612846182
365,Fagernes,NO,60.9858,9.2324,3.0,85,100,4.47,1612846183
366,Szydłowiec,PL,51.2282,20.8611,19.0,86,94,5.79,1612846184
367,Pangnirtung,CA,66.1451,-65.7125,10.17,71,0,2.62,1612846185
368,Gao,ML,16.6362,1.637,69.91,19,65,11.27,1612846187
369,Oranjemund,NA,-28.55,16.4333,62.8,93,4,11.92,1612846188
370,Mogadishu,SO,2.0371,45.3438,75.2,73,40,11.5,1612846189
371,Pedernales,DO,18.0384,-71.744,76.12,62,1,4.21,1612846190
372,Corner Brook,CA,48.9667,-57.9484,32.0,93,90,13.8,1612846191
373,Port Lincoln,AU,-34.7333,135.8667,74.26,52,74,11.83,1612846192
374,Quelimane,MZ,-17.8786,36.8883,78.3,87,100,4.47,1612846193
375,Acaraú,BR,-2.8856,-40.12,78.35,87,99,10.02,1612846195
376,Kashgar,CN,39.4547,75.9797,42.8,28,20,4.47,1612846196
377,Prince Rupert,CA,54.3161,-130.3201,28.4,59,90,6.91,1612846197
378,Neiafu,TO,-18.65,-173.9833,80.6,89,75,16.11,1612846198
379,Manzhouli,CN,49.6,117.4333,15.76,92,78,3.42,1612846199
380,Cotonou,BJ,6.3654,2.4183,80.6,89,20,4.61,1612846200
381,Cadillac,US,44.2519,-85.4012,8.6,85,90,4.61,1612846019
382,Cuauhtémoc,MX,28.4167,-106.8667,50.0,24,0,4.47,1612846153
383,Wilmington,US,34.2257,-77.9447,48.2,81,1,6.91,1612845730
384,Rawson,AR,-43.3002,-65.1023,64.0,62,10,21.12,1612846205
385,Bulgan,MN,48.8125,103.5347,22.23,88,63,3.49,1612846206
386,Susuman,RU,62.7833,148.1667,-2.43,88,99,5.06,1612846208
387,Roald,NO,62.5833,6.1333,21.2,68,0,8.05,1612846209
388,Kanniyākumāri,IN,8.0833,77.5667,79.79,62,55,24.05,1612846210
389,Yangambi,CD,0.8102,24.4336,66.74,61,100,0.47,1612846212
390,Nouadhibou,MR,20.931,-17.0347,59.0,82,0,20.71,1612846214
391,Lata,PT,40.1629,-8.3327,55.0,93,100,3.0,1612846215
392,Honningsvåg,NO,70.9821,25.9704,24.8,74,75,24.16,1612846216
393,Edwardsville,US,38.8114,-89.9532,17.01,100,90,4.61,1612846217
394,Wukari,NG,7.85,9.7833,72.61,26,52,2.93,1612846218
395,Balikpapan,ID,-1.2675,116.8289,86.0,74,20,4.61,1612846219
396,Vermilion,US,40.1667,-87.7506,15.8,92,90,8.05,1612846221
397,Manono,CD,-7.3,27.4167,70.72,94,100,1.14,1612846222
398,Rio Grande,BR,-32.035,-52.0986,66.99,96,75,10.22,1612846223
399,Necochea,AR,-38.5473,-58.7368,53.01,84,6,7.2,1612846224
400,Rocha,UY,-34.4833,-54.3333,62.04,93,7,5.5,1612846225
401,Egvekinot,RU,66.3167,-179.1667,-10.01,83,98,9.57,1612846226
402,Port-Gentil,GA,-0.7193,8.7815,81.84,79,100,8.14,1612846228
403,Kaohsiung City,TW,22.6163,120.3133,75.2,57,75,10.36,1612846229
404,Tiarei,PF,-17.5333,-149.3333,80.6,69,20,3.44,1612846230
405,Abu Samrah,SY,35.3029,37.1841,53.2,68,77,3.94,1612846231
406,Luena,AO,-11.7833,19.9167,62.24,97,97,6.89,1612846232
407,Novyy Urgal,RU,51.0736,132.5642,-3.24,84,87,1.1,1612846235
408,Russell,US,32.3502,-85.1999,53.6,87,75,4.61,1612846236
409,Lüderitz,NA,-26.6481,15.1594,64.63,77,0,0.22,1612846237
410,Portobelo,PA,9.55,-79.65,78.01,99,62,13.35,1612846238
411,Yenagoa,NG,4.9247,6.2642,77.76,93,91,2.24,1612846165
412,Sundsvall,SE,62.3913,17.3063,14.0,85,6,4.61,1612846240
413,Takoradze,GH,4.8845,-1.7554,78.39,90,16,7.43,1612846242
414,Chumphon,TH,10.3333,98.8333,89.6,58,20,4.61,1612846243
415,Nantucket,US,41.2835,-70.0995,24.01,68,1,6.91,1612846244
416,Taoudenni,ML,22.6783,-3.9836,57.61,32,9,9.06,1612846245
417,Fort Nelson,CA,58.8053,-122.7002,-22.0,69,75,5.75,1612846246
418,Asekeyevo,RU,53.5742,52.7972,-16.62,87,52,8.99,1612846247
419,Pāvilosta,LV,56.8879,21.1859,19.4,79,90,12.66,1612846249
420,Ippy,CF,6.2679,21.2247,59.9,31,100,5.3,1612846250
421,Tingo María,PE,-9.2895,-76.0088,71.47,84,100,1.59,1612846251
422,Kodinsk,RU,58.6881,99.1844,30.27,98,100,10.18,1612846252
423,Acapulco de Juárez,MX,16.8634,-99.8901,74.82,77,0,4.34,1612846253
424,Calera,US,33.1029,-86.7536,52.0,76,90,3.94,1612846254
425,Aswān,EG,24.0934,32.907,59.11,49,0,7.94,1612846105
426,Presidencia Roque Sáenz Peña,AR,-26.7852,-60.4388,71.11,50,48,3.02,1612846257
427,Ust-Kuyga,RU,70.0167,135.6,-25.53,84,7,8.08,1612846259
428,Sokoni,TZ,-6.4333,39.55,80.6,83,75,8.05,1612846260
429,Sept-Îles,CA,50.2001,-66.3821,10.99,61,1,14.97,1612846262
430,Changtu,CN,42.7788,124.0955,27.48,91,0,13.24,1612846263
431,Dorado,PR,18.4588,-66.2677,72.0,88,28,11.81,1612846265
432,Mayya,RU,61.7333,130.2811,-20.2,76,100,8.95,1612846266
433,Sarmanovo,RU,55.2553,52.5891,-14.8,84,75,13.42,1612846267
434,Itarema,BR,-2.9248,-39.9167,77.85,88,88,6.6,1612846268
435,Nuuk,GL,64.1835,-51.7216,30.2,43,13,2.3,1612846270
436,Krasnoarmiys'k,UA,48.282,37.1758,28.74,98,100,19.48,1612846222
437,Makkah al Mukarramah,SA,21.4267,39.8261,72.36,38,0,1.03,1612846272
438,Bobrovka,RU,54.047,61.7455,-9.47,89,100,8.88,1612846273
439,Qaqortoq,GL,60.7167,-46.0333,39.2,28,75,37.98,1612846274
440,Saint Paul Harbor,US,57.79,-152.4072,30.2,64,20,8.05,1612846275
441,Kaeo,NZ,-35.1,173.7833,72.0,84,93,10.0,1612846277
442,Invermere,CA,50.5167,-116.0354,-2.25,80,99,1.95,1612846278
443,Zhigansk,RU,66.7697,123.3711,-21.44,81,19,2.35,1612846279
444,Epe,NG,6.5841,3.9834,77.83,91,38,3.36,1612846280
445,The Valley,AI,18.217,-63.0578,78.8,65,20,12.66,1612846281
446,Nālūt,LY,30.3333,10.85,47.86,49,2,5.93,1612846282
447,Roscommon,IE,53.6333,-8.1833,31.21,94,100,14.09,1612846284
448,Nadym,RU,65.5333,72.5167,-15.68,90,45,4.54,1612846285
449,Lev Tolstoy,RU,53.2134,39.446,-0.78,90,95,10.76,1612846286
450,Hervey Bay,AU,-25.2986,152.8535,80.01,61,4,5.99,1612846287
451,Lethem,GY,3.3803,-59.7968,77.14,73,15,12.37,1612846288
452,Cabo Rojo,PR,18.0866,-67.1457,73.0,93,31,7.65,1612846289
453,Whitehorse,CA,60.7161,-135.0538,-25.6,75,40,5.75,1612846038
454,Hrebinka,UA,50.1171,32.4361,27.1,98,100,19.08,1612846293
455,Goma,CD,-1.6792,29.2228,64.45,65,100,2.93,1612846294
456,Price,US,39.5994,-110.8107,35.6,44,1,5.75,1612846295
457,Tarancón,ES,40.0085,-3.0073,44.01,93,75,11.5,1612846299
458,Faya,SA,18.3851,42.4509,46.4,93,20,7.2,1612846300
459,Smoky Lake,CA,54.1169,-112.4686,-18.4,69,31,11.5,1612846301
460,Chingirlau,KZ,51.095,54.0814,-20.2,86,0,6.44,1612846302
461,Abhā,SA,18.2164,42.5053,46.4,93,20,6.11,1612846050
462,Fairbanks,US,64.8378,-147.7164,-16.6,58,1,8.05,1612846202
463,Poum,NC,-20.2333,164.0167,81.54,74,10,9.15,1612846307
464,Koygorodok,RU,60.445,50.9968,-27.18,84,53,7.52,1612846308
465,Nelson Bay,AU,-32.7167,152.15,77.0,47,20,18.41,1612846028
466,Saint-Augustin,CA,51.226,-58.6502,34.36,88,100,14.03,1612846296
467,Dunedin,NZ,-45.8742,170.5036,55.99,90,100,5.01,1612846061
468,Camacha,PT,33.0833,-16.3333,60.8,77,20,17.27,1612846312
469,Waconia,US,44.8508,-93.7869,-9.0,77,1,4.61,1612846314
470,Guerrero Negro,MX,27.9769,-114.0611,59.02,78,1,7.83,1612846276
471,San Miguel de Tucumán,AR,-26.8241,-65.2226,64.4,100,90,8.05,1612846291
472,Marquette,US,46.5333,-87.6335,-0.99,58,97,5.99,1612846046
473,Hobyo,SO,5.3505,48.5268,78.17,66,85,23.51,1612846310
474,Kourou,GF,5.1552,-52.6478,77.0,83,20,2.3,1612846320
475,Dayong,CN,25.0209,118.2898,64.4,55,40,13.42,1612846322
476,Dalby,AU,-27.1833,151.2667,87.01,33,22,5.01,1612846323
477,Urengoy,RU,65.9667,78.3667,-9.74,90,95,6.15,1612846324
478,Krasnovishersk,RU,60.4078,57.082,-15.34,87,100,7.27,1612846325
479,Jacareacanga,BR,-6.2222,-57.7528,74.28,98,100,1.66,1612846326
480,Luganville,VU,-15.5333,167.1667,82.02,68,61,0.94,1612846327
481,Vao,NC,-22.6667,167.4833,78.53,74,3,1.03,1612846314
482,San Diego de Los Baños,CU,22.6467,-83.3697,70.61,86,0,4.12,1612846330
483,Turinsk,RU,58.0458,63.696,-11.97,88,100,10.02,1612846331
484,Rio Verde de Mato Grosso,BR,-18.9181,-54.8442,72.5,63,0,11.14,1612846332
485,Mareeba,AU,-17.0,145.4333,89.01,84,75,10.36,1612846308
486,Hambantota,LK,6.1241,81.1185,84.2,70,0,14.97,1612846261
487,Altay,CN,47.8667,88.1167,30.83,92,100,5.77,1612846298
488,Palmas,BR,-10.2128,-48.3603,77.0,94,75,3.44,1612846337
489,Moree,AU,-29.4667,149.85,89.6,29,40,8.05,1612846334
490,General Pico,AR,-35.6566,-63.7568,68.52,39,100,7.74,1612846340
491,Puerto del Rosario,ES,28.5004,-13.8627,59.0,88,0,5.75,1612846341
492,Thinadhoo,MV,0.5333,72.9333,82.15,81,99,14.7,1612846342
493,Crib Point,AU,-38.35,145.2,82.99,38,26,3.0,1612846343
494,Privolzhskiy,RU,51.4,46.0333,-13.0,53,31,3.4,1612846344
495,Kavaratti,IN,10.5669,72.642,81.82,64,47,7.65,1612846292
496,Xinzhi,CN,36.4989,111.7047,49.64,45,0,5.12,1612846347
497,Ouadda,CF,8.0777,22.4007,61.93,29,96,6.49,1612846348
498,Magugu,TZ,-4.0167,35.7667,65.64,89,100,3.67,1612846349
499,Kraskino,RU,42.7114,130.7794,23.9,91,92,8.39,1612846350
500,Iringa,TZ,-7.7667,35.7,64.4,94,90,1.41,1612846351
501,Gobabis,NA,-22.45,18.9667,67.32,76,66,8.52,1612846281
502,Umluj,SA,25.0213,37.2685,71.6,37,25,14.5,1612846320
503,Shimoda,JP,34.6667,138.95,44.6,42,40,4.61,1612846268
504,Saint-Louis,SN,16.3333,-15.0,67.12,23,91,10.69,1612846356
505,Tomatlán,MX,19.9333,-105.25,63.28,92,0,1.5,1612846335
506,Villa María,AR,-32.4075,-63.2402,63.0,97,100,1.99,1612846358
507,Raghunathpur,IN,23.55,86.6667,75.2,57,0,3.44,1612846359
508,Buraidah,SA,26.326,43.975,42.8,100,0,2.91,1612846320
509,Clyde River,CA,70.4692,-68.5914,3.2,92,75,23.02,1612846299
510,Vardø,NO,70.3705,31.1107,15.8,79,20,13.8,1612846270
511,Opuwo,NA,-18.0607,13.84,65.79,60,100,4.45,1612846364
512,Umba,RU,66.6871,34.3429,-3.28,91,7,5.5,1612846365
513,Coyhaique,CL,-45.5752,-72.0662,62.6,67,0,2.3,1612846089
514,Talaya,RU,61.3833,152.75,-11.83,86,99,5.03,1612846368
515,Verkhnyaya Sinyachikha,RU,57.976,61.6673,-11.4,87,100,10.89,1612846369
516,Lincoln,US,40.8,-96.667,-2.99,77,1,4.61,1612846253
517,Xichang,CN,27.8964,102.2634,59.45,41,76,1.9,1612846372
518,São José do Belmonte,BR,-7.8614,-38.7597,72.72,83,99,6.29,1612846373
519,Krasnosel'kup,RU,65.7,82.4667,-7.2,91,70,11.63,1612846326
520,Gostyń,PL,51.8825,17.0123,17.01,84,84,2.1,1612846376
521,Kazachinskoye,RU,57.6953,93.2761,19.42,91,91,14.58,1612846377
522,General Delgado,PY,-27.1667,-56.5167,69.08,69,17,3.49,1612846378
523,Yatou,CN,37.15,122.3833,43.97,57,0,13.33,1612846379
524,La Santisima Trinidad,BO,-14.8333,-64.9,75.13,91,100,1.28,1612846318
525,Bafoulabé,ML,13.8065,-10.8321,69.17,22,7,4.09,1612846276
526,Petatlán,MX,17.5167,-101.2667,70.02,88,14,2.64,1612846383
527,Carutapera,BR,-1.195,-46.02,77.76,86,86,6.64,1612846310
528,Koungou,YT,-12.7336,45.2042,78.8,89,75,8.05,1612846385
529,Shingū,JP,33.7333,135.9833,46.4,39,75,20.71,1612846341
530,Salisbury,GB,51.0693,-1.7957,30.0,80,75,8.05,1612846387
531,Dori,BF,14.0354,-0.0345,70.39,20,10,7.92,1612846388
532,Nemuro,JP,43.3236,145.575,26.6,43,20,12.66,1612846321
533,Puerto Maldonado,PE,-12.6,-69.1833,74.57,95,100,0.89,1612846391
534,Hirara,JP,24.8,125.2833,68.0,60,75,14.97,1612846392
535,Genhe,CN,50.7833,121.5167,9.55,89,93,3.38,1612846393
536,Guasdualito,VE,7.2424,-70.7324,76.86,65,80,3.11,1612846394
537,Tvedestrand,NO,58.622,8.9315,21.2,79,75,18.41,1612846395
538,Vestmannaeyjar,IS,63.4427,-20.2734,35.2,84,92,13.65,1612846295
539,Marzuq,YE,14.4,46.4667,59.79,63,100,14.12,1612846398
540,Esim,GH,4.8699,-2.2405,78.91,88,45,7.76,1612846399
541,Aklavik,CA,68.2191,-135.0107,-38.2,67,78,3.44,1612846290
542,Tokur,RU,53.1333,132.9,-6.81,89,97,2.59,1612846401
543,Kapit,MY,2.0167,112.9333,90.73,59,94,1.32,1612846131
544,Solana Beach,US,32.9912,-117.2711,53.6,76,90,3.44,1612846404
545,Rovira,CO,4.2392,-75.24,70.47,76,100,4.79,1612846405
546,Cabinda,AO,-5.55,12.2,79.84,84,100,8.63,1612846406
547,Sibolga,ID,1.7427,98.7792,87.24,59,50,5.39,1612846040
548,São Miguel do Araguaia,BR,-13.275,-50.1628,69.26,97,12,3.91,1612846408
549,Marang,MY,5.2056,103.2059,84.2,70,40,5.75,1612846409
550,Kutum,SD,14.2,24.6667,50.34,44,42,10.33,1612846298
551,San Fernando del Valle de Catamarca,AR,-28.4696,-65.7852,64.99,99,100,4.0,1612846412
552,Nome,US,64.5011,-165.4064,8.6,47,90,14.97,1612846259
553,Khani,GE,41.9563,42.9566,57.2,51,75,17.27,1612846414
554,Puerto Escondido,MX,15.85,-97.0667,77.0,83,1,5.79,1612846415
555,Tooele,US,40.5308,-112.2983,37.99,80,40,3.06,1612846416
556,Amahai,ID,-3.3333,128.9167,87.75,59,37,4.92,1612846417
557,Yasothon,TH,15.75,104.1333,82.99,88,75,5.75,1612846419
558,Udachny,RU,66.4167,112.4,-18.85,83,0,4.29,1612846331
559,Burgeo,CA,47.6167,-57.6152,31.03,92,100,36.31,1612846421
560,Saint-Paul,RE,-21.0096,55.2707,77.0,80,0,1.99,1612846422
561,Arvika,SE,59.6553,12.5852,17.6,86,90,9.22,1612846423
562,Ardakān,IR,32.31,54.0175,44.6,61,0,6.91,1612846395
563,Horodnytsya,UA,50.807,27.3168,21.45,98,100,6.73,1612846425
564,Vanimo,PG,-2.6741,141.3028,84.04,73,53,5.28,1612846427
565,Bako,ET,5.7833,36.5667,69.76,59,99,1.88,1612846428
566,Omboué,GA,-1.5746,9.2618,77.92,87,100,4.23,1612846272
567,Yacuiba,BO,-22.038,-63.6797,74.48,54,100,4.0,1612846430
568,Bangangté,CM,5.1409,10.5198,60.53,90,93,2.48,1612846431
569,Dédougou,BF,12.4667,-3.4667,71.64,22,0,6.98,1612846432
570,Korčula,HR,42.9622,17.1369,51.8,82,75,5.75,1612846435
571,Feicheng,CN,35.2606,117.9675,47.12,47,16,9.53,1612846436
572,Cobija,BO,-11.0267,-68.7692,73.53,96,99,1.97,1612846437
573,Wagar,SD,16.1525,36.2032,64.26,79,6,7.4,1612846438
574,Evensk,RU,61.95,159.2333,9.79,90,69,19.75,1612846262
575,Plast,RU,54.3691,60.8136,-11.06,84,99,9.08,1612846442
